Time,header.seq,header.stamp.secs,header.stamp.nsecs,header.frame_id,pose.position.x,pose.position.y,pose.position.z,pose.orientation.x,pose.orientation.y,pose.orientation.z,pose.orientation.w
1650412115.7415059,1,1650412115,720211728,atracsys,0.05087567520141602,-0.011328216552734376,1.3260460205078126,-0.009630394449495764,-0.03911089943596965,0.2630176486149081,0.9639498480549397
1650412115.7589283,2,1650412115,741126447,atracsys,0.05091213607788086,-0.0113350830078125,1.326040771484375,-0.009618942919525706,-0.03914344019663007,0.26302029077569833,0.963947920619652
1650412115.775158,3,1650412115,750070784,atracsys,0.05091540145874023,-0.01135211944580078,1.3260323486328125,-0.009562282940435022,-0.039208203953299416,0.2630398926576084,0.9639405035366018
1650412115.794408,4,1650412115,771033655,atracsys,0.05094503402709961,-0.011354397773742676,1.326029541015625,-0.009585183722008572,-0.03915274433949999,0.2629880218724326,0.9639566832671093
1650412115.8121493,5,1650412115,791885063,atracsys,0.05096354675292969,-0.01136394500732422,1.3260185546875,-0.009758512624794062,-0.039240715467246425,0.2629356578346867,0.9639656516287347
1650412115.8289828,6,1650412115,809835538,atracsys,0.050972892761230466,-0.011378856658935546,1.3260144042968751,-0.009659872598095889,-0.03929963180501038,0.26290087044224697,0.9639737331079556
1650412115.845472,7,1650412115,830804976,atracsys,0.05098775100708008,-0.011407922744750977,1.3260072021484375,-0.009728873822704107,-0.03930372577742536,0.26284542506833974,0.9639879919764553
1650412115.8638387,8,1650412115,839608944,atracsys,0.050987964630126954,-0.01141638469696045,1.3260096435546875,-0.009680507287829028,-0.0391879304780486,0.2628366665114689,0.9639955812246428
1650412115.8803768,9,1650412115,860557581,atracsys,0.05095762634277344,-0.011432900428771972,1.32600390625,-0.00963247136910504,-0.03912589158536531,0.2628128050561728,0.9640050879541454
1650412115.8975236,10,1650412115,872493917,atracsys,0.05092542266845703,-0.011417189598083497,1.326010986328125,-0.009621914558698737,-0.03908207341042115,0.26279662263367004,0.9640113824175024
1650412115.91319,11,1650412115,890383527,atracsys,0.05084747695922852,-0.011429983139038086,1.3259993896484374,-0.00938637989101246,-0.03884065204730094,0.2628561668413261,0.9640072277605428
1650412115.931288,12,1650412115,911320609,atracsys,0.05073023223876953,-0.011435728073120117,1.3259852294921874,-0.009367166844248438,-0.03861938593291397,0.2629128739084779,0.9640008402219686
1650412115.9470825,13,1650412115,932246404,atracsys,0.05059992599487305,-0.011417976379394531,1.32594482421875,-0.009427631218621954,-0.038343283642759705,0.2629539547173089,0.9640000674624584
1650412115.9646683,14,1650412115,941146007,atracsys,0.05053078842163086,-0.01140797519683838,1.3259359130859376,-0.009324484626042906,-0.03817158544937839,0.26298757282472685,0.9639987139983633
1650412115.979653,15,1650412115,962032677,atracsys,0.05036636734008789,-0.011384816169738769,1.3259005126953125,-0.009241976543902691,-0.037940749841508206,0.2630487879721094,0.9639919193216457
1650412115.9972131,16,1650412115,971001456,atracsys,0.0502940673828125,-0.011376888275146485,1.32588623046875,-0.009042495457709547,-0.037712801138084596,0.26312496117893175,0.9639819670049862
1650412116.013281,17,1650412115,991929318,atracsys,0.05012940216064453,-0.011369478225708008,1.3258443603515626,-0.009007108750624113,-0.03748551043834029,0.26315583497001543,0.963982735851823
1650412116.0309265,18,1650412116,12823031,atracsys,0.04996323776245117,-0.011324049949645996,1.325807861328125,-0.00910460015773602,-0.03731810824595744,0.2631812996100208,0.9639813631956228
1650412116.0469625,19,1650412116,33688482,atracsys,0.049815216064453126,-0.011268417358398437,1.32578564453125,-0.00882931053987388,-0.037179462682714715,0.2632266996030078,0.9639768853277152
1650412116.0645688,20,1650412116,42658547,atracsys,0.049741737365722655,-0.011247483253479004,1.3257744140625,-0.008714112944720829,-0.03707115036963822,0.2632539066384159,0.9639746753340933
1650412116.0785222,21,1650412116,63549177,atracsys,0.049589675903320314,-0.011233203887939453,1.325747314453125,-0.008813374449761675,-0.03685952542588595,0.2632730894135174,0.9639766492020692
1650412116.095544,22,1650412116,72474332,atracsys,0.04952336120605469,-0.011218299865722656,1.3257388916015624,-0.008790834626919956,-0.03674842656834695,0.26328985504933794,0.9639765176597466
1650412116.109886,23,1650412116,93374022,atracsys,0.04937092971801758,-0.011181774139404297,1.3257041015625,-0.008878599127551255,-0.036565715419046664,0.263286902366003,0.9639834676880825
1650412116.1276505,24,1650412116,111299420,atracsys,0.04924663925170899,-0.011141236305236817,1.325675048828125,-0.008777543390332663,-0.03652293016037558,0.2633018063320033,0.9639819443780239
1650412116.141886,25,1650412116,123193489,atracsys,0.04915814590454102,-0.011116707801818847,1.3256761474609375,-0.0088307255574695,-0.03648312442178153,0.26328877493618214,0.9639865252746834
1650412116.161539,26,1650412116,144167520,atracsys,0.04902430725097656,-0.01106820011138916,1.3256583251953125,-0.008795989882455921,-0.036317153942549196,0.2632739623501793,0.9639971554107082
1650412116.1767528,27,1650412116,153481614,atracsys,0.04896383285522461,-0.01106398105621338,1.3256436767578126,-0.008833451860606302,-0.0363158945550657,0.2632580194359376,0.964001214280127
1650412116.1973522,28,1650412116,173989701,atracsys,0.04883976364135742,-0.01102139949798584,1.3256226806640625,-0.00895198646776425,-0.03616514779994361,0.2631765111139729,0.9640280431713417
1650412116.2134821,29,1650412116,191962150,atracsys,0.048731094360351564,-0.01098664665222168,1.3255986328125,-0.008796113176980827,-0.03597008517578159,0.26309647776218986,0.964058621015628
1650412116.232738,30,1650412116,212840392,atracsys,0.04860076904296875,-0.010964065551757813,1.3255655517578124,-0.008628029936878301,-0.03578935511138835,0.26296237370773873,0.964103453564041
1650412116.250007,31,1650412116,233711746,atracsys,0.0484920539855957,-0.010965471267700196,1.32551708984375,-0.008664265291572595,-0.03570667173691069,0.2627517950726044,0.9641636055600491
1650412116.2669075,32,1650412116,242693775,atracsys,0.048436031341552735,-0.010950167655944825,1.32550244140625,-0.008771215241470684,-0.03571558416070919,0.26266100685248234,0.9641870452928142
1650412116.2815735,33,1650412116,263484900,atracsys,0.04831564331054688,-0.010915849685668945,1.3254539794921876,-0.00860663209725123,-0.03543349615594601,0.26263288246151956,0.9642065973037434
1650412116.2990575,34,1650412116,284547565,atracsys,0.048186710357666016,-0.0108685359954834,1.32539990234375,-0.008752012361023447,-0.03550504576032876,0.2625597984265025,0.9642225605405755
1650412116.3125064,35,1650412116,293409322,atracsys,0.04813573837280274,-0.010852647781372071,1.32539599609375,-0.008597098675669336,-0.035282003461804684,0.2625713694507132,0.9642289904741814
1650412116.3300061,36,1650412116,314249127,atracsys,0.04801015090942383,-0.010823342323303222,1.3253660888671874,-0.008580158604774239,-0.035138637462734504,0.26256726370545175,0.9642354946100103
1650412116.3465214,37,1650412116,323225000,atracsys,0.04795783615112305,-0.010803451538085937,1.3253612060546875,-0.008533292477124383,-0.035193576806227686,0.2625562642694303,0.9642369019924332
1650412116.3639734,38,1650412116,344144893,atracsys,0.047848342895507816,-0.010738997459411622,1.32534130859375,-0.00853996451109798,-0.035130310207449916,0.262471627768483,0.9642621920035237
1650412116.3796165,39,1650412116,365012869,atracsys,0.047740173339843754,-0.010719844818115234,1.3252994384765626,-0.008428126752645745,-0.0350204940237449,0.26240097062793155,0.9642864005529134
1650412116.3975732,40,1650412116,373958000,atracsys,0.047694583892822266,-0.010708641052246094,1.325266845703125,-0.008469672801883783,-0.034906093255469645,0.2623667705403678,0.9642994903101876
1650412116.4141104,41,1650412116,394913167,atracsys,0.047594158172607426,-0.010683077812194824,1.32521826171875,-0.00835510329562821,-0.0347153798061857,0.26225947075249145,0.9643365619193616
1650412116.4308157,42,1650412116,415790845,atracsys,0.047497581481933594,-0.010657268524169922,1.3251666259765624,-0.008542719151478929,-0.03478979298141218,0.26208943634720555,0.9643784628500439
1650412116.4480011,43,1650412116,424699224,atracsys,0.04745783233642578,-0.010640518188476562,1.3251578369140626,-0.00844978042169822,-0.0346679244061179,0.26208265547999654,0.9643855131246789
1650412116.4672298,44,1650412116,445613783,atracsys,0.04735987091064453,-0.01058117961883545,1.3251064453125,-0.008339110017684339,-0.034567482324882236,0.2620189167023224,0.9644074013092048
1650412116.4836712,45,1650412116,463507626,atracsys,0.047273723602294926,-0.010570610046386719,1.3250604248046876,-0.008350206074006376,-0.034528704143272075,0.2619949456427397,0.9644152067996264
1650412116.4984717,46,1650412116,484504879,atracsys,0.04715175247192383,-0.010503828048706055,1.32500439453125,-0.008310473565809119,-0.03437009419513859,0.2620001768023553,0.964419794492867
1650412116.5134976,47,1650412116,496369673,atracsys,0.04709251022338867,-0.010463266372680665,1.32497607421875,-0.008286858260156852,-0.03440614086160342,0.2619692651735116,0.9644271095088721
1650412116.5303388,48,1650412116,514340729,atracsys,0.046994426727294925,-0.010433021545410157,1.324925048828125,-0.008483243142730293,-0.034379541124953145,0.2618994493696924,0.9644453121653248
1650412116.5458887,49,1650412116,526262035,atracsys,0.046932735443115235,-0.010410014152526856,1.3248919677734374,-0.008342735480264754,-0.034291158599318826,0.2618928938230224,0.9644514644976313
1650412116.562986,50,1650412116,544153287,atracsys,0.046836029052734374,-0.010364030838012695,1.3248514404296876,-0.008341321121746306,-0.03422327261927714,0.2618148394375393,0.964475079939065
1650412116.5779798,51,1650412116,565010362,atracsys,0.046727302551269535,-0.010355642318725586,1.3247939453125,-0.008276480025780774,-0.034006527012021705,0.26172376564388133,0.9645080230335827
1650412116.5959666,52,1650412116,576917632,atracsys,0.046660865783691406,-0.01031972599029541,1.324752685546875,-0.008134655370796936,-0.03389285533213112,0.26170486313979596,0.9645183597777774
1650412116.6125324,53,1650412116,594914101,atracsys,0.046564708709716796,-0.010266456604003906,1.3247020263671876,-0.008060679851841529,-0.033912083315194505,0.2616140772442595,0.9645429335354565
1650412116.630402,54,1650412116,606834907,atracsys,0.046506286621093754,-0.010262019157409668,1.324677978515625,-0.008072774904667868,-0.03372991709756399,0.2615309623354437,0.964571759247505
1650412116.6455612,55,1650412116,624751364,atracsys,0.04641276931762695,-0.01025801181793213,1.3246265869140625,-0.008177472230216245,-0.03384714001959499,0.2613282802154281,0.9646217030629493
1650412116.6624498,56,1650412116,645645479,atracsys,0.04630602264404297,-0.010210793495178222,1.3245833740234376,-0.00824080398282804,-0.03372229991612943,0.26116869534656173,0.9646687556923662
1650412116.6766062,57,1650412116,657590513,atracsys,0.04624843978881836,-0.010207438468933105,1.3245509033203124,-0.008109891069381446,-0.0335211109829963,0.26110186676017594,0.9646949673133264
1650412116.694496,58,1650412116,675593924,atracsys,0.04615966415405273,-0.010158665657043457,1.324498779296875,-0.007970805239106886,-0.033312998285321624,0.2610377699835628,0.9647206813638294
1650412116.7091196,59,1650412116,696397745,atracsys,0.04606634140014648,-0.010134758949279786,1.3244276123046874,-0.008195384488917871,-0.033279047245632846,0.2609153717925894,0.9647530821147122
1650412116.7269354,60,1650412116,705351547,atracsys,0.04602624130249024,-0.010132576942443848,1.324394287109375,-0.007963005213046062,-0.03330272888185922,0.2609023600661143,0.9647577298518681
1650412116.7480795,61,1650412116,726259091,atracsys,0.04592112731933594,-0.010092397689819337,1.32433837890625,-0.008129918669069466,-0.03349472844755452,0.26077559717627463,0.9647839631264693
1650412116.7653928,62,1650412116,747176942,atracsys,0.045811836242675784,-0.01002827262878418,1.324286865234375,-0.007980976609098215,-0.03339658195648579,0.26074095613950016,0.9647979716590661
1650412116.782851,63,1650412116,767995335,atracsys,0.04570043182373047,-0.01000571346282959,1.3242275390625,-0.0078117642693859264,-0.03316870696034327,0.26067439181587515,0.964825204204887
1650412116.7995386,64,1650412116,776937851,atracsys,0.045645397186279295,-0.009988656044006347,1.3242019042968751,-0.007779456531549909,-0.03318491955827421,0.2606096877932914,0.9648423870240506
1650412116.816318,65,1650412116,797908394,atracsys,0.04552958679199219,-0.009967439651489258,1.3241527099609376,-0.007862666441946104,-0.03297736547908684,0.26048130931774804,0.9648834952151442
1650412116.8331628,66,1650412116,815808701,atracsys,0.04541868591308594,-0.009941526412963867,1.32410205078125,-0.008045637910335048,-0.03296915077041156,0.26038989045475835,0.9649069425374929
1650412116.8495276,67,1650412116,827700313,atracsys,0.045345260620117185,-0.009903316497802735,1.32407080078125,-0.007901075282943077,-0.03300846538171448,0.26037398712972004,0.9649110845299115
1650412116.8661258,68,1650412116,848582944,atracsys,0.0452023811340332,-0.009868853569030762,1.32401220703125,-0.007926462736468867,-0.032939319436846165,0.2603442330738803,0.9649212676320789
1650412116.8827715,69,1650412116,866512235,atracsys,0.04507855606079102,-0.009844310760498047,1.323952880859375,-0.007622724556656119,-0.03259592814028473,0.26040948108324447,0.9649177693984924
1650412116.9001248,70,1650412116,878534300,atracsys,0.04498274612426758,-0.009796549797058105,1.3239178466796875,-0.007853383456899421,-0.032555864623560936,0.260392117976562,0.9649219579544097
1650412116.9154854,71,1650412116,896362002,atracsys,0.044846664428710936,-0.009750032424926757,1.323864990234375,-0.0077091838113706275,-0.03243677105928191,0.26042994159135874,0.9649169238286432
1650412116.9331012,72,1650412116,917312979,atracsys,0.04466587829589844,-0.009698722839355469,1.3238139648437501,-0.007700117649807721,-0.03236485466603398,0.2604319960353539,0.9649188565945155
1650412116.949738,73,1650412116,929258079,atracsys,0.04457075881958008,-0.009655532836914062,1.3237794189453125,-0.007664829534442936,-0.032251223212236585,0.26046023802187634,0.964915319289268
1650412116.9678826,74,1650412116,947149682,atracsys,0.04440983581542969,-0.009629422187805176,1.3237298583984376,-0.007827445098656969,-0.032247730178107954,0.2604440995881455,0.9649184867082337
1650412116.9840837,75,1650412116,968070395,atracsys,0.044237510681152344,-0.009590508460998536,1.3236475830078125,-0.007549899403116074,-0.032040925491950235,0.2604899342059347,0.9649152150785114
1650412117.0001805,76,1650412116,976984562,atracsys,0.04415658187866211,-0.009561004638671875,1.323617431640625,-0.007532174038458022,-0.032079368225758326,0.26046929525546486,0.9649196478036978
1650412117.0171995,77,1650412116,997866691,atracsys,0.043982585906982424,-0.009514538764953614,1.323569091796875,-0.007583736353394922,-0.03189439375191512,0.2604463562228772,0.9649315675841196
1650412117.0388336,78,1650412117,18791580,atracsys,0.04380069732666016,-0.009476505279541015,1.3235118408203126,-0.007589381160934823,-0.03170086425568632,0.26043055702666673,0.9649421648294869
1650412117.0565286,79,1650412117,39693935,atracsys,0.043633663177490234,-0.009419852256774903,1.3234681396484376,-0.007653366857425349,-0.03162764811007223,0.2603877312465694,0.9649556193250731
1650412117.0725646,80,1650412117,48579531,atracsys,0.043552173614501956,-0.009407219886779785,1.32345166015625,-0.007472862913586802,-0.03175368453341166,0.26035225407204166,0.9649624674763441
1650412117.0919402,81,1650412117,69584518,atracsys,0.04338944244384766,-0.009351429939270019,1.3234241943359375,-0.007598909886840474,-0.0315976419210012,0.26026526266832417,0.9649900717840324
1650412117.1088238,82,1650412117,87408193,atracsys,0.04323077774047852,-0.009303265571594239,1.3233659667968751,-0.007558684789502548,-0.031458086863849426,0.2601593389636899,0.9650235092499536
1650412117.126,83,1650412117,108343240,atracsys,0.04306460189819336,-0.009303153991699219,1.3233001708984375,-0.007441477167144657,-0.03127943121890522,0.2599745506658839,0.9650800249752682
1650412117.1426194,84,1650412117,120306759,atracsys,0.04295522689819336,-0.00929366970062256,1.3232646484375001,-0.007551629733150401,-0.03134139156878733,0.2597940419755174,0.9651257668391868
1650412117.1612604,85,1650412117,138132369,atracsys,0.042806289672851563,-0.009263701438903808,1.3232008056640625,-0.007344632259909451,-0.03102193255107089,0.2595794570507289,0.9651954214328891
1650412117.180404,86,1650412117,159104798,atracsys,0.04261677551269531,-0.009256003379821777,1.323122802734375,-0.007366991468188681,-0.03082689166036372,0.25925998315522186,0.9652873620438744
1650412117.1963077,87,1650412117,179947835,atracsys,0.04241436767578125,-0.009223652839660645,1.3230563964843751,-0.007338383271469273,-0.030626731066274875,0.25892001413102134,0.9653851965705436
1650412117.2133005,88,1650412117,188874498,atracsys,0.042329116821289064,-0.009230623245239258,1.323025146484375,-0.007224254619109588,-0.030530238355526346,0.2587538646825492,0.9654336601771237
1650412117.229853,89,1650412117,209798530,atracsys,0.042125679016113284,-0.009207569122314452,1.3229576416015625,-0.006946354407281917,-0.030222744695129096,0.2583593292259771,0.9655510296537645
1650412117.2457123,90,1650412117,230743087,atracsys,0.04191626739501953,-0.009173055648803712,1.3228907470703126,-0.007081820479773369,-0.03008706525868775,0.2579108634700503,0.9656741701148193
1650412117.26492,91,1650412117,239697014,atracsys,0.04182255554199219,-0.009159683227539062,1.32286376953125,-0.006884985724071728,-0.029876610981044733,0.2577626313902273,0.9657217047093083
1650412117.2816944,92,1650412117,260504831,atracsys,0.04160067367553711,-0.009166747093200684,1.32277587890625,-0.006801404488921921,-0.029548014331671812,0.2574168495985135,0.965824632782168
1650412117.2993584,93,1650412117,278450138,atracsys,0.041403381347656254,-0.009128344535827638,1.32270849609375,-0.006938189279417148,-0.029549491269341536,0.257131864882569,0.9658995253944679
1650412117.3158844,94,1650412117,299304654,atracsys,0.04119286346435547,-0.009090682983398438,1.3226282958984374,-0.006764058603611543,-0.029125532002018707,0.2567679808626435,0.9660104320868007
1650412117.332425,95,1650412117,311300442,atracsys,0.04107195281982422,-0.009070493698120118,1.3225943603515626,-0.006730543859048424,-0.02905723767915421,0.25656350757743634,0.9660670490692566
1650412117.3488164,96,1650412117,329292067,atracsys,0.04089267730712891,-0.009027100563049317,1.32253271484375,-0.00673506165471913,-0.028974537137247527,0.2562773318440459,0.9661454571259371
1650412117.365373,97,1650412117,341133885,atracsys,0.04077468109130859,-0.009006178855895997,1.3224990234375,-0.006751356694475487,-0.028934460776755582,0.2560695001168426,0.9662016493839435
1650412117.3819075,98,1650412117,359105101,atracsys,0.04060602951049805,-0.00899234676361084,1.322423828125,-0.006534045179087745,-0.028711899299122247,0.2558304659771021,0.9662731010279514
1650412117.3998184,99,1650412117,380033990,atracsys,0.04040281677246094,-0.008895179748535157,1.3223504638671875,-0.0066445292884266625,-0.028673199612472864,0.25560563320937557,0.9663329954659279
1650412117.4162712,100,1650412117,400896587,atracsys,0.040224998474121094,-0.008811782836914063,1.322269287109375,-0.0064647890222631725,-0.02846503651647075,0.2554683924349042,0.966376659830803
1650412117.434163,101,1650412117,409925291,atracsys,0.04013959121704102,-0.008770295143127441,1.322247314453125,-0.006389340723840344,-0.0282691729515754,0.2554312557014494,0.9663927275163702
1650412117.4508088,102,1650412117,430714189,atracsys,0.039971168518066404,-0.008697513580322266,1.322193359375,-0.00656283224872169,-0.02845273047674214,0.2552543686007996,0.9664329147289532
1650412117.468467,103,1650412117,451644226,atracsys,0.03979459381103516,-0.00858780288696289,1.322143798828125,-0.006339918362115974,-0.028247043353523574,0.25525339015649867,0.9664406949164341
1650412117.4858837,104,1650412117,460597391,atracsys,0.03972602462768555,-0.008531494140625,1.322127197265625,-0.0063401570994711534,-0.02811458831433512,0.25526633048524566,0.9664411378105067
1650412117.5016205,105,1650412117,481562332,atracsys,0.03956673049926758,-0.00838861083984375,1.3220810546875,-0.006409679786743552,-0.027972433660259595,0.2552760309806288,0.9664422419197802
1650412117.5180109,106,1650412117,502342247,atracsys,0.039417301177978516,-0.008267233848571778,1.3220458984375,-0.006227780327718897,-0.028060738168862176,0.25527303062977,0.9664416638156186
1650412117.535369,107,1650412117,511319062,atracsys,0.039348812103271485,-0.008224665641784668,1.32203125,-0.006202086137492802,-0.028152118288532046,0.25524965721651405,0.9664453449907365
1650412117.5502858,108,1650412117,532193631,atracsys,0.0391988525390625,-0.008091478347778321,1.3219884033203124,-0.006211944194440813,-0.028048667659671813,0.2551783538121684,0.9664671188082679
1650412117.5666037,109,1650412117,550163305,atracsys,0.03906183242797852,-0.007940616607666016,1.32195263671875,-0.00601111457146843,-0.02790036793277805,0.2551435300073527,0.9664818751876373
1650412117.5801132,110,1650412117,562016903,atracsys,0.03897909545898438,-0.007838356494903564,1.3219329833984375,-0.005997712161099246,-0.02803312224649054,0.255114955799057,0.9664856599213415
1650412117.597325,111,1650412117,583012617,atracsys,0.03881694030761719,-0.0076454696655273435,1.3218989257812501,-0.00564979042018133,-0.02802624132914433,0.25506651932593993,0.966500739981154
1650412117.6136553,112,1650412117,591892640,atracsys,0.03875000762939453,-0.007561197757720947,1.321888427734375,-0.0056502867229970884,-0.027919064487933378,0.25504069237117205,0.9665106545366687
1650412117.630017,113,1650412117,612880001,atracsys,0.038584197998046875,-0.007322835922241211,1.321843994140625,-0.005239443682081418,-0.027735679500872766,0.25501992489982467,0.9665237287395562
1650412117.6450899,114,1650412117,630736092,atracsys,0.03843990325927735,-0.007111082553863526,1.3218118896484374,-0.00504763840022597,-0.027721701571134415,0.25501097458267047,0.9665275119990006
1650412117.6624856,115,1650412117,642677546,atracsys,0.038334548950195314,-0.006972805976867676,1.3217789306640626,-0.0048826338514795465,-0.027745677458064624,0.2550183680752611,0.9665257209269167
1650412117.6768894,116,1650412117,663509490,atracsys,0.03814955139160156,-0.006813206672668457,1.3217412109375,-0.004542102517472205,-0.027637091377454855,0.25501927631985194,0.9665302525995831
1650412117.6947126,117,1650412117,672514976,atracsys,0.03807111358642578,-0.006745952606201172,1.321716796875,-0.004393488555467281,-0.027393830145664176,0.25502497412329816,0.9665363613965461
1650412117.710707,118,1650412117,693410663,atracsys,0.037879348754882816,-0.0065544495582580565,1.3216773681640626,-0.0043353317526967534,-0.027328748027702816,0.25497345393475085,0.9665520587213169
1650412117.730002,119,1650412117,711270534,atracsys,0.03772005081176758,-0.006363377571105958,1.321645751953125,-0.004153298797501159,-0.027442524767393162,0.2548922731080445,0.9665710460454026
1650412117.7472079,120,1650412117,723303748,atracsys,0.03760427856445313,-0.006245880603790283,1.32163232421875,-0.003941746042146451,-0.02753182117368882,0.2548519933015013,0.9665800137449826
1650412117.764537,121,1650412117,741182127,atracsys,0.03744662475585937,-0.006084516525268555,1.3215848388671876,-0.003702527860149425,-0.02731991502426403,0.25479622683326847,0.9666016740736805
1650412117.7815034,122,1650412117,762084725,atracsys,0.03725099563598633,-0.005932269096374512,1.32152978515625,-0.0034835267555797475,-0.027215270099815073,0.2546745740669627,0.9666374994994497
1650412117.797415,123,1650412117,774010202,atracsys,0.0371363639831543,-0.005829232215881348,1.3215013427734374,-0.003264520784686209,-0.02720760058168938,0.254608702164958,0.9666558323190882
1650412117.8145986,124,1650412117,791969008,atracsys,0.03695475006103516,-0.005679779529571534,1.3214583740234376,-0.0028549771113805366,-0.027060403905812856,0.25455808632386495,0.9666745907146208
1650412117.831986,125,1650412117,812825711,atracsys,0.036738693237304686,-0.005520118236541748,1.3213876953125,-0.0028617527456435065,-0.02686695581296902,0.2544602840542865,0.966705715766478
1650412117.8481538,126,1650412117,833684607,atracsys,0.03652505874633789,-0.005405013084411621,1.32132080078125,-0.002668350502485014,-0.026855232445593402,0.25435547618738996,0.9667341765601211
1650412117.866363,127,1650412117,842749281,atracsys,0.036424560546875,-0.005353041172027588,1.3212869873046875,-0.0025947702245188464,-0.026834493343688256,0.2542905093366901,0.9667520436987741
1650412117.881434,128,1650412117,863573526,atracsys,0.036206512451171874,-0.005269251346588135,1.321188720703125,-0.002395199025671661,-0.026617863995370968,0.25416803586177233,0.9667907539297841
1650412117.8988676,129,1650412117,884442163,atracsys,0.03597496414184571,-0.00517675256729126,1.3210921630859376,-0.0023457271128902953,-0.02643441676762447,0.25396177109666795,0.9668501114422603
1650412117.9135013,130,1650412117,893356453,atracsys,0.03587995529174805,-0.005148289203643799,1.3210579833984375,-0.002399330727629188,-0.026386331274670338,0.25386203166693566,0.9668774863507055
1650412117.930871,131,1650412117,914267286,atracsys,0.03565017700195312,-0.00509752368927002,1.3209697265625,-0.0021856938465736656,-0.02628954406908402,0.2537009359198877,0.9669229119885524
1650412117.9460597,132,1650412117,932186114,atracsys,0.03544841384887695,-0.0050320949554443365,1.3208948974609376,-0.001935740651204017,-0.02596457875129308,0.2536069958830569,0.9669568683232826
1650412117.9635103,133,1650412117,944129018,atracsys,0.03530718612670899,-0.004967528343200684,1.3208511962890626,-0.0018531478148760424,-0.025913937792638658,0.2535553543646931,0.9669719313114783
1650412117.9795623,134,1650412117,965072544,atracsys,0.03505990600585938,-0.004886524200439453,1.3207762451171876,-0.0017800750167092066,-0.025857741937164225,0.2534689900539911,0.9669962148818658
1650412117.9983757,135,1650412117,974008628,atracsys,0.034950519561767576,-0.00485005807876587,1.3207344970703125,-0.0017888655276168395,-0.02582448183962276,0.2534097070406788,0.9670126247756006
1650412118.0160117,136,1650412117,994931078,atracsys,0.034689552307128904,-0.004786101341247559,1.32067236328125,-0.001432677369011719,-0.025475397996821327,0.2533624127003147,0.9670348697762327
1650412118.0356326,137,1650412118,12814442,atracsys,0.03446712875366211,-0.004709423065185547,1.3205845947265624,-0.0010965018388163874,-0.025369603998696748,0.25329627221438766,0.9670554169017211
1650412118.0521796,138,1650412118,33757001,atracsys,0.03422704315185547,-0.004617186069488526,1.3205072021484374,-0.0011634452622137858,-0.02526108142671112,0.2530795114153513,0.9671149285695274
1650412118.0707078,139,1650412118,45684588,atracsys,0.03408221817016602,-0.004576191425323487,1.3204515380859376,-0.0010069943630777003,-0.02512921078433466,0.2529869360026981,0.967142760371847
1650412118.0877028,140,1650412118,63586642,atracsys,0.03388375473022461,-0.0045840821266174316,1.320351806640625,-0.0009152098591806022,-0.024991864833109674,0.25291849011054823,0.9671643120190477
1650412118.1038203,141,1650412118,84397077,atracsys,0.0336448974609375,-0.004556823253631592,1.320262451171875,-0.0008620362702021396,-0.024831696851372573,0.2528674506740521,0.9671818319812239
1650412118.1192837,142,1650412118,105351530,atracsys,0.03343291854858398,-0.004529078006744385,1.320177001953125,-0.0006922270287638504,-0.024649512185163473,0.2528497727594203,0.967191250366898
1650412118.1372511,143,1650412118,114267381,atracsys,0.03333466339111328,-0.004522870063781739,1.3201409912109374,-0.0008345616269888406,-0.024743955544134007,0.25280561284785885,0.9672002699976562
1650412118.1520727,144,1650412118,135284148,atracsys,0.033124256134033206,-0.004509820461273194,1.3200798339843751,-0.0007898450188645084,-0.024614208727058898,0.25271248404723523,0.9672279551792653
1650412118.171308,145,1650412118,144167639,atracsys,0.033027442932128906,-0.004519123554229737,1.3200460205078126,-0.0007004150545597465,-0.024410767457860007,0.25268788537317877,0.9672396065280314
1650412118.188011,146,1650412118,174028765,atracsys,0.032704818725585935,-0.004532777786254883,1.3199644775390624,-0.0007077557352508949,-0.02439640016348414,0.25251932269527305,0.9672839843636423
1650412118.2051663,147,1650412118,185992240,atracsys,0.032565235137939456,-0.00453535795211792,1.3199266357421875,-0.000616718276401971,-0.024293008671847065,0.2524559496169907,0.9673031907789928
1650412118.2206433,148,1650412118,206799707,atracsys,0.032344852447509766,-0.004546739101409912,1.3198563232421876,-0.0003583349425797988,-0.02419415321553462,0.25236196678832606,0.9673303222090063
1650412118.2380574,149,1650412118,215769191,atracsys,0.03223724365234375,-0.0045587592124938965,1.31983447265625,-0.00038851131505608357,-0.0241459588190216,0.25231682531046185,0.9673432903560754
1650412118.252847,150,1650412118,236706975,atracsys,0.032014530181884764,-0.004565611362457276,1.3197864990234376,-0.00036756948880069625,-0.02411366214085599,0.2521980842560351,0.96737506815527
1650412118.270648,151,1650412118,254577137,atracsys,0.03180282402038574,-0.004549320220947266,1.3197431640625,-0.00023303734631431472,-0.02402504929903178,0.2521449367199273,0.9673911688589463
1650412118.2867565,152,1650412118,266563563,atracsys,0.03167276000976563,-0.004522143363952636,1.3197181396484374,-0.00014456041196480486,-0.024100228885903234,0.25211309660972003,0.9673976145245513
1650412118.3044772,153,1650412118,284489758,atracsys,0.031456029891967774,-0.004483580112457275,1.3196925048828125,-6.083744847761524e-05,-0.023982186690375145,0.25206585611673354,0.9674128669810481
1650412118.3189638,154,1650412118,305391535,atracsys,0.031224109649658202,-0.004450366497039795,1.3196495361328124,0.00010889318870621934,-0.023895080673030415,0.25201600240569866,0.9674280065169468
1650412118.3348231,155,1650412118,317299629,atracsys,0.031080381393432617,-0.004432729244232178,1.3196131591796876,0.00022608163574975196,-0.02381918430630671,0.25198907971830425,0.9674368708338535
1650412118.351651,156,1650412118,335134832,atracsys,0.03087811088562012,-0.004377598285675049,1.3195975341796875,0.00024343607306739448,-0.023611970395468716,0.25191528767958254,0.9674611637819034
1650412118.3679194,157,1650412118,347172302,atracsys,0.030733057022094726,-0.004330010890960694,1.3195880126953126,0.0005316290215004816,-0.023686971023793975,0.2518899049107429,0.9674658239846813
1650412118.3836315,158,1650412118,365034897,atracsys,0.03053092384338379,-0.0042708230018615725,1.319580322265625,0.000657997228634487,-0.02352678101758733,0.25179385707848784,0.9674946569114147
1650412118.4015532,159,1650412118,377017619,atracsys,0.030387453079223633,-0.004237881660461426,1.3195701904296875,0.0007825204703446588,-0.023596661701154608,0.25174304921391033,0.9675060839037434
1650412118.4176145,160,1650412118,397859545,atracsys,0.030153654098510743,-0.004230900764465332,1.31956494140625,0.001044314147962683,-0.023405743746067822,0.2516110182947254,0.9675448186210006
1650412118.4360216,161,1650412118,415748468,atracsys,0.02994713592529297,-0.004202835559844971,1.3195654296875001,0.0010389629903739077,-0.02321060025362423,0.25143075453455144,0.9675963850004594
1650412118.4499407,162,1650412118,436633373,atracsys,0.02972604751586914,-0.0041560869216918945,1.3195701904296875,0.0013248869009220671,-0.02312146225038114,0.2512563963024297,0.9676434601521474
1650412118.4673157,163,1650412118,445596251,atracsys,0.02962118148803711,-0.004141110897064209,1.3195762939453126,0.0014170094662117687,-0.022961892963889147,0.2511864199574055,0.9676652964660196
1650412118.4833417,164,1650412118,466583709,atracsys,0.029401035308837892,-0.004149669170379639,1.31956689453125,0.0015257303061682907,-0.022556353831943685,0.25097119016369285,0.9677305124654594
1650412118.5014548,165,1650412118,478522419,atracsys,0.029274715423583984,-0.004148135185241699,1.319566162109375,0.0015713838451953787,-0.02248670112501591,0.2508389209390552,0.9677663533970664
1650412118.5176487,166,1650412118,496379716,atracsys,0.029093820571899416,-0.004148774147033692,1.319549560546875,0.0017987631606251376,-0.022510772952351602,0.2506369870790599,0.9678177154093175
1650412118.5349987,167,1650412118,517318607,atracsys,0.028886768341064455,-0.004157171249389648,1.3195513916015624,0.0019174290107800036,-0.022287054596544755,0.2503658375719549,0.9678928442964607
1650412118.5491312,168,1650412118,538255136,atracsys,0.028687948226928713,-0.004183950901031494,1.3195400390625,0.001950329754310254,-0.02194228082686811,0.25016294315171267,0.967953115806565
1650412118.5666327,169,1650412118,547108902,atracsys,0.028599338531494142,-0.004198452949523926,1.3195306396484374,0.0018967657586110153,-0.021986284621922345,0.25007726529709456,0.967974362754359
1650412118.583009,170,1650412118,568058659,atracsys,0.028404762268066406,-0.0041877303123474124,1.3195318603515624,0.0021245886258409773,-0.02180213320024924,0.2498600226706997,0.9680341534171648
1650412118.6091821,171,1650412118,576977612,atracsys,0.02831705856323242,-0.004182077407836914,1.31953515625,0.0022103625973981726,-0.021609593775207225,0.2497798520386577,0.9680589678679729
1650412118.628559,172,1650412118,606786785,atracsys,0.028053272247314454,-0.004219564437866211,1.319528564453125,0.0023330532980948217,-0.021346644084395783,0.24950224358387577,0.9681360999855623
1650412118.6433878,173,1650412118,627735239,atracsys,0.027860239028930665,-0.004286016941070557,1.319521240234375,0.002340194180047275,-0.02123345784404128,0.24930388120792915,0.9681896707638683
1650412118.6590543,174,1650412118,636633514,atracsys,0.027781600952148437,-0.0043098278045654295,1.319525634765625,0.0024806086972520777,-0.02114552700209038,0.2492318541513131,0.9682097893249135
1650412118.6734397,175,1650412118,657538911,atracsys,0.027583524703979494,-0.004333439826965332,1.3195084228515626,0.002540361886937975,-0.020891225508068507,0.24901372047523956,0.9682712792773178
1650412118.689277,176,1650412118,669520221,atracsys,0.027484954833984377,-0.004350987434387207,1.3195072021484375,0.0026662692286036965,-0.020825247989550506,0.24885401514224947,0.9683134199225761
1650412118.7060797,177,1650412118,687414544,atracsys,0.02731790351867676,-0.004422450542449951,1.3194970703125,0.0025567895043191787,-0.020707666816467452,0.2485576372832665,0.9683923565944792
1650412118.7213142,178,1650412118,708350772,atracsys,0.027131359100341798,-0.0044763641357421875,1.3194765625,0.002695497265282178,-0.020415080072372457,0.24832150568938152,0.9684587697017822
1650412118.7394845,179,1650412118,717273222,atracsys,0.027042003631591798,-0.004504965782165527,1.3194619140625001,0.00288239873355775,-0.02021775758906041,0.24826717383441663,0.9684763004079566
1650412118.753513,180,1650412118,738175740,atracsys,0.026855764389038087,-0.004554558277130127,1.319421142578125,0.0028329564967602538,-0.02009363040049744,0.2479988460384651,0.9685477751450393
1650412118.7707381,181,1650412118,750144714,atracsys,0.026744300842285157,-0.004573704719543457,1.3193997802734376,0.0027952083577913495,-0.020021070196233177,0.24779515873838504,0.9686015191317082
1650412118.7855008,182,1650412118,767981314,atracsys,0.02658677101135254,-0.0046014971733093265,1.3193743896484376,0.0029145423717993604,-0.01980988865571772,0.24760961893073619,0.9686529566192357
1650412118.8019133,183,1650412118,780001413,atracsys,0.026472318649291993,-0.004630768299102784,1.3193590087890625,0.002996259270407289,-0.019757945589128557,0.2475108182822326,0.9686790184832854
1650412118.8186927,184,1650412118,797834383,atracsys,0.02630209732055664,-0.004664851665496826,1.3193289794921876,0.0029106941836934985,-0.01968542275907225,0.24730613977508703,0.968733030932522
1650412118.8351839,185,1650412118,818782038,atracsys,0.026084697723388672,-0.004690857887268067,1.3192763671875,0.0030161876275230587,-0.01936675367398242,0.24709048545446083,0.9687941594901395
1650412118.851366,186,1650412118,827671490,atracsys,0.025999046325683593,-0.004704599380493164,1.3192526855468751,0.0030369088287488925,-0.019276218485162634,0.24702219546408685,0.9688133151096657
1650412118.869042,187,1650412118,848667658,atracsys,0.025790616989135744,-0.004698632240295411,1.31922802734375,0.0029662801085113427,-0.019064031635854083,0.24687879730301462,0.9688542838437171
1650412118.8855066,188,1650412118,869462702,atracsys,0.025601097106933594,-0.0047132992744445806,1.3191981201171876,0.0031968517773743143,-0.01885415299787151,0.24680231965377714,0.9688771418848527
1650412118.9040875,189,1650412118,878543471,atracsys,0.025515167236328126,-0.0047216153144836424,1.3191872558593751,0.0031138883846241906,-0.018874780119840215,0.24677681984102678,0.9688835056722275
1650412118.9192212,190,1650412118,899326795,atracsys,0.025330150604248047,-0.0046870713233947755,1.319169677734375,0.0033021910998478677,-0.01880773706159275,0.2467779575832577,0.9688838961462812
1650412118.9362416,191,1650412118,920258334,atracsys,0.02515224838256836,-0.004661845684051514,1.3191545410156251,0.0032306646103301704,-0.018746932635269647,0.2467301009830575,0.9688975036565192
1650412118.95126,192,1650412118,929203620,atracsys,0.025088329315185547,-0.004667753219604492,1.3191447753906251,0.003339032640002618,-0.018778867031415195,0.2467161002339599,0.9689000830319874
1650412118.968032,193,1650412118,950088602,atracsys,0.02493003845214844,-0.004653231143951416,1.3191116943359376,0.0032632936156312734,-0.018767831314724776,0.24666766376062127,0.9689128872491054
1650412118.9835787,194,1650412118,971092843,atracsys,0.024780406951904296,-0.004633234977722168,1.31908544921875,0.003191552828516869,-0.018761109540586865,0.24664198384795127,0.9689197936686482
1650412118.9996533,195,1650412118,980002588,atracsys,0.024706893920898438,-0.004625734806060791,1.319068359375,0.003307336264231642,-0.01874649255520312,0.24666086723917127,0.9689148812545574
1650412119.0169594,196,1650412119,869236,atracsys,0.024551904678344727,-0.004585316658020019,1.319043212890625,0.003233473176945799,-0.01849627689242002,0.24666225275399903,0.968919586683361
1650412119.0357347,197,1650412119,9843988,atracsys,0.024480173110961914,-0.004572259902954102,1.3190211181640625,0.0032902560396910275,-0.018587556492913354,0.246641793685264,0.9689228568707271
1650412119.0511234,198,1650412119,30741466,atracsys,0.02432126808166504,-0.00458670711517334,1.3189997558593751,0.0033052366827397792,-0.018583264935517943,0.2465885958204878,0.9689364282996525
1650412119.0689867,199,1650412119,51649507,atracsys,0.024146186828613282,-0.004541347980499268,1.3189854736328126,0.0034488318462491093,-0.018247626315389464,0.2465343728245404,0.968956104634653
1650412119.0827537,200,1650412119,69503238,atracsys,0.02401212501525879,-0.0045311279296875,1.3189688720703125,0.0035199187612828934,-0.018180646157973174,0.24642362180271593,0.9689852800196836
1650412119.0990186,201,1650412119,81465539,atracsys,0.023912500381469727,-0.004543259143829346,1.3189422607421875,0.0035260898109773157,-0.018095600589387032,0.2463388982376944,0.9690083916793462
1650412119.114626,202,1650412119,99314480,atracsys,0.023780269622802736,-0.0045366230010986325,1.3189140625,0.0034828647911428817,-0.018165900223935456,0.2461800662732001,0.9690475967111335
1650412119.1325965,203,1650412119,111329166,atracsys,0.023684669494628906,-0.004533617496490478,1.3188978271484375,0.003507250276007232,-0.0180229224927625,0.2460921458754537,0.9690725097735132
1650412119.1486287,204,1650412119,132200029,atracsys,0.02352469825744629,-0.004553595542907715,1.318875244140625,0.003556175786202614,-0.017847321994118783,0.24593315433638677,0.9691159426557644
1650412119.1655097,205,1650412119,141241124,atracsys,0.02345385551452637,-0.004534857273101807,1.31885888671875,0.0037051965725739145,-0.017812403299625128,0.2458902870279567,0.9691269042557633
1650412119.184183,206,1650412119,162024889,atracsys,0.023285821914672853,-0.00452749490737915,1.3188282470703125,0.003636955254877937,-0.017686297711656154,0.24567460040332317,0.9691841714279058
1650412119.2013679,207,1650412119,180036055,atracsys,0.02313850784301758,-0.004542262077331543,1.31880224609375,0.003668876713240822,-0.017640100337743804,0.24547480622994733,0.9692355161208793
1650412119.2162845,208,1650412119,200923151,atracsys,0.022981830596923828,-0.004541195392608642,1.3187705078125,0.003614947773613034,-0.017337148138915393,0.2451618979186481,0.969320380089024
1650412119.233037,209,1650412119,212789684,atracsys,0.02288254165649414,-0.00454068660736084,1.31874560546875,0.003678052621039303,-0.017386351103964776,0.24498701617220436,0.9693634760146715
1650412119.2507865,210,1650412119,230723742,atracsys,0.02273946189880371,-0.004545030593872071,1.3187103271484375,0.003897891684417949,-0.017272086685135454,0.24485835186194105,0.969397167824113
1650412119.2671552,211,1650412119,251547648,atracsys,0.022563913345336913,-0.004522890567779541,1.3186597900390624,0.0035353658705213936,-0.017299182894593645,0.24457167007394265,0.9694704418684376
1650412119.2837431,212,1650412119,260589787,atracsys,0.02249403953552246,-0.004535906314849854,1.3186361083984375,0.003678882643004463,-0.017063892057345997,0.24452087711034787,0.9694868900957562
1650412119.301615,213,1650412119,281555110,atracsys,0.02232469367980957,-0.004554720878601075,1.3185970458984375,0.003607785258242916,-0.017218604666775834,0.24428136118806176,0.9695448004682236
1650412119.3179815,214,1650412119,302348882,atracsys,0.02215108108520508,-0.00450923490524292,1.318566650390625,0.0037836107110215,-0.01703401233197622,0.24414903690049936,0.9695807209791354
1650412119.3358514,215,1650412119,311265142,atracsys,0.022064245223999024,-0.004493662357330322,1.31855029296875,0.0037452480373489235,-0.016957238490637048,0.2440785714116164,0.969599956764425
1650412119.3520794,216,1650412119,332260987,atracsys,0.02186349105834961,-0.0044935250282287596,1.3185155029296876,0.003708424829019653,-0.016795049134567606,0.24395234166083055,0.9696346883791094
1650412119.3678167,217,1650412119,353063252,atracsys,0.02165171241760254,-0.00447117280960083,1.3184678955078126,0.003762864686412218,-0.01674769787301318,0.24386958548434945,0.9696561146824154
1650412119.3831468,218,1650412119,362111903,atracsys,0.02156310272216797,-0.004465445041656494,1.3184451904296874,0.0037452156877186855,-0.01669953023846134,0.24382122033981712,0.9696691763489595
1650412119.400645,219,1650412119,382969156,atracsys,0.021337888717651368,-0.004433152198791504,1.3184129638671875,0.0038160420827412123,-0.01648101521631984,0.24372335220697094,0.9696972422097834
1650412119.416686,220,1650412119,403806793,atracsys,0.02112091064453125,-0.004387672424316406,1.3183641357421876,0.0037851003470714666,-0.016426804595096964,0.2435830154700883,0.9697335446815563
1650412119.4339957,221,1650412119,412864801,atracsys,0.021014917373657228,-0.0043801493644714355,1.31834130859375,0.003853500695000892,-0.016318049972304134,0.24352662894334262,0.969749273148986
1650412119.4512208,222,1650412119,433872661,atracsys,0.02078420639038086,-0.004389242649078369,1.31829052734375,0.0038288979644511226,-0.016203004509825994,0.24337719966439034,0.9697888125095854
1650412119.4687285,223,1650412119,451617432,atracsys,0.020574499130249023,-0.004333019733428955,1.31824169921875,0.0038997548535608284,-0.01604442833955071,0.2432502754293379,0.9698230105204199
1650412119.4843996,224,1650412119,463562375,atracsys,0.020445695877075197,-0.004312519073486328,1.3182119140625,0.00399007616263856,-0.015917375912004778,0.24316798232478243,0.9698453736593203
1650412119.501298,225,1650412119,484462639,atracsys,0.020197811126708983,-0.004280230045318603,1.318164794921875,0.003969474411518527,-0.015933033733829143,0.2430114984488763,0.9698844226662088
1650412119.5177631,226,1650412119,502454141,atracsys,0.019991430282592773,-0.00423977518081665,1.3181126708984374,0.004004354359421866,-0.015763866534816467,0.24287898224869067,0.9699202367410822
1650412119.5352035,227,1650412119,514315098,atracsys,0.01984077835083008,-0.004234170913696289,1.3180927734375,0.0040176102927650895,-0.015452902866852794,0.24274387738748263,0.9699590076861052
1650412119.5503247,228,1650412119,535188242,atracsys,0.01959147071838379,-0.004210343837738037,1.318041015625,0.004074416904132664,-0.015551188882575034,0.24243310585147498,0.9700349214530565
1650412119.567168,229,1650412119,544150427,atracsys,0.019482686996459962,-0.004189126491546631,1.3180123291015626,0.0041178781398694304,-0.015431452027406232,0.24229687418581766,0.9700706871809565
1650412119.5837872,230,1650412119,565015791,atracsys,0.019224428176879884,-0.004161274433135987,1.3179615478515625,0.004110099184848499,-0.015041405285487275,0.24202576842157691,0.9701445204873725
1650412119.6019945,231,1650412119,583095663,atracsys,0.01899026679992676,-0.004137589454650879,1.31791259765625,0.004299207981574936,-0.015143450225259992,0.24183880992493628,0.9701887356283296
1650412119.6168592,232,1650412119,594928841,atracsys,0.018843210220336915,-0.004121747970581055,1.317875244140625,0.0043966694430701515,-0.015049646416843468,0.24165374633700135,0.9702358704571937
1650412119.6338356,233,1650412119,612786539,atracsys,0.01861843490600586,-0.004083157062530518,1.3178289794921876,0.004296596390495759,-0.014648307181612785,0.24138816233641405,0.9703085702187834
1650412119.6482584,234,1650412119,633752648,atracsys,0.018355833053588868,-0.004026191711425781,1.317775146484375,0.004525081904676569,-0.014621449314578157,0.24113200418370118,0.9703716264463058
1650412119.6654973,235,1650412119,645634402,atracsys,0.01819656181335449,-0.003984253883361816,1.31775048828125,0.0044490510696686,-0.014503518678911939,0.2409625916290318,0.9704158301088922
1650412119.6806755,236,1650412119,663535122,atracsys,0.0179564208984375,-0.003949142694473266,1.317696044921875,0.004583929993434234,-0.01441439726857367,0.24077248426031606,0.9704637157360985
1650412119.6997097,237,1650412119,675496717,atracsys,0.017795804977416993,-0.003911031723022461,1.317666259765625,0.004704234762557851,-0.014261123941751117,0.24068085501540493,0.9704881331310911
1650412119.7161992,238,1650412119,693398861,atracsys,0.01754307174682617,-0.0038249826431274417,1.3176220703125001,0.004573348561019858,-0.01402427921202833,0.24052424310857323,0.9705310363674984
1650412119.7350452,239,1650412119,714258416,atracsys,0.017259654998779298,-0.00370940637588501,1.3175687255859376,0.0046390400094857955,-0.013824462731987305,0.24040359368783534,0.9705634835908142
1650412119.7493305,240,1650412119,735272991,atracsys,0.016976089477539064,-0.0035952875614166263,1.3175291748046876,0.004601320877325021,-0.013736746957147317,0.24030966118245786,0.9705881703233311
1650412119.7677062,241,1650412119,744110680,atracsys,0.0168485221862793,-0.003536583423614502,1.31751611328125,0.004777861381417586,-0.013598605983749179,0.2402911722375706,0.9705938401311914
1650412119.782479,242,1650412119,765091378,atracsys,0.016568111419677733,-0.003435413360595703,1.3174794921875,0.0046526162437414646,-0.013695541553005208,0.24011505831115595,0.9706366694473728
1650412119.801397,243,1650412119,774021573,atracsys,0.016448585510253907,-0.003372230529785156,1.317460693359375,0.004724363079501457,-0.01345972408370988,0.24009900671055656,0.97064359226118
1650412119.8146918,244,1650412119,794867295,atracsys,0.01615623474121094,-0.003213613748550415,1.3174194335937501,0.004817689966191089,-0.013165491946076711,0.23996732022352538,0.9706797334393809
1650412119.8334277,245,1650412119,815832016,atracsys,0.01585977268218994,-0.0030690715312957765,1.317385986328125,0.004756548969088154,-0.01313146540588154,0.2398912223188173,0.9706993053013805
1650412119.8485477,246,1650412119,824736661,atracsys,0.015732690811157225,-0.0030127782821655273,1.3173594970703126,0.0049818489885850555,-0.013070882643783695,0.23992587048959851,0.9706904294765534
1650412119.8664243,247,1650412119,845622323,atracsys,0.015428863525390626,-0.0028352079391479493,1.3173160400390624,0.004703587363489812,-0.012899164561048105,0.23989214785184523,0.9707024493729114
1650412119.8849654,248,1650412119,866645714,atracsys,0.015126813888549804,-0.0026426968574523924,1.31728271484375,0.004896322618639249,-0.012676915606414329,0.2399040354226869,0.9707014863609886
1650412119.8999245,249,1650412119,875525099,atracsys,0.014997556686401367,-0.0025574688911437988,1.3172662353515625,0.004856063258663865,-0.012727266482558343,0.23986442592432133,0.970710818170636
1650412119.9144325,250,1650412119,896442633,atracsys,0.014701048851013183,-0.00237174129486084,1.3172333984375,0.005014937462346217,-0.012653272547755945,0.23983376589757482,0.9707185533569801
1650412119.9336247,251,1650412119,917284747,atracsys,0.014408967018127442,-0.0021952288150787354,1.31720947265625,0.0052154030837375355,-0.01236027309131309,0.23976662119424386,0.9707378588377392
1650412119.948709,252,1650412119,935262702,atracsys,0.01417266082763672,-0.002022146701812744,1.3171687011718751,0.005201945426839981,-0.012274821374655147,0.23968662353082054,0.9707587707687174
1650412119.967944,253,1650412119,947112640,atracsys,0.014008589744567871,-0.0019001315832138062,1.3171435546875,0.005263848592243575,-0.012189445969577757,0.23963150049605098,0.9707731214217686
1650412119.9830678,254,1650412119,965014335,atracsys,0.013780491828918457,-0.0017552051544189454,1.3171114501953125,0.005243240082184545,-0.01184991020452711,0.23947328325614117,0.9708164783665908
1650412119.9996047,255,1650412119,977054081,atracsys,0.01363763427734375,-0.0016486915349960328,1.3170777587890625,0.005087758749130398,-0.012001009407992582,0.23929317014882961,0.9708598607441876
1650412120.015881,256,1650412119,997848017,atracsys,0.013395797729492188,-0.0014815791845321656,1.3170550537109376,0.005311688053330082,-0.011732044277366231,0.23905879879244193,0.9709196855698276
1650412120.0331612,257,1650412120,15793093,atracsys,0.013199091911315918,-0.0013210569620132446,1.3170400390625001,0.005312917700889988,-0.011456504480269485,0.2388145340375811,0.9709830790199231
1650412120.050084,258,1650412120,27713249,atracsys,0.013082106590270997,-0.0012173677682876588,1.317027587890625,0.0053097224534475185,-0.011611234662619842,0.2386429410743056,0.9710234460364396
1650412120.0674467,259,1650412120,45580444,atracsys,0.012926202774047851,-0.0010489882230758666,1.3170213623046876,0.005463395255090385,-0.011432206492739875,0.23840507770781727,0.971083145199279
1650412120.0834312,260,1650412120,66568929,atracsys,0.01276898193359375,-0.0008692419528961182,1.317017333984375,0.0054163163202503185,-0.011416547784169322,0.23809643729406046,0.971159313656666
1650412120.1016464,261,1650412120,78448190,atracsys,0.01268883228302002,-0.0007669603228569031,1.3170152587890624,0.0055448224890577305,-0.011098150392156877,0.2379869911742883,0.9711891051866506
1650412120.1176214,262,1650412120,96436125,atracsys,0.012575174331665039,-0.0006102337241172791,1.317013671875,0.0056290432908290425,-0.011046444310543057,0.23777908547145282,0.9712401332585487
1650412120.135128,263,1650412120,117336534,atracsys,0.012455530166625976,-0.0003966718018054962,1.317003173828125,0.005653101576878702,-0.010951852725831714,0.23765720056594117,0.9712708964977759
1650412120.1510222,264,1650412120,126260553,atracsys,0.012413797378540039,-0.0003196065723896027,1.317007080078125,0.005543443149091773,-0.010875151386249256,0.23760679665491308,0.9712847221612053
1650412120.1681736,265,1650412120,147144559,atracsys,0.012332117080688477,-0.00010931403934955597,1.317021484375,0.005595490744545612,-0.010788423614332328,0.2375219340936022,0.9713061470121972
1650412120.1849208,266,1650412120,168056748,atracsys,0.012277583122253417,9.554703533649444e-05,1.317059814453125,0.005522458141457099,-0.010741487583007523,0.23745058097510355,0.9713245309859962
1650412120.2020986,267,1650412120,176962624,atracsys,0.012260587692260742,0.00019285210967063906,1.317081787109375,0.005634042759402359,-0.01074577284420932,0.2374253564811645,0.9713300088167552
1650412120.2187083,268,1650412120,197982436,atracsys,0.012238993644714355,0.00041687914729118347,1.3171435546875,0.005635734100636219,-0.010638098191344796,0.23734199864106856,0.9713515558483866
1650412120.2353725,269,1650412120,218759156,atracsys,0.012243654251098633,0.0006255089044570923,1.3172069091796876,0.0055304415066236845,-0.010802085777950996,0.23721991291637212,0.97138017381226
1650412120.251417,270,1650412120,236695446,atracsys,0.012279489517211915,0.000787817895412445,1.3172718505859375,0.005634603239644795,-0.010749263058459316,0.23721605845447472,0.9713811024522533
1650412120.2689447,271,1650412120,248607505,atracsys,0.01230154800415039,0.0009079968333244324,1.3173106689453125,0.005622666277269021,-0.010852733688554925,0.23719253087236022,0.9713857663635926
1650412120.2833676,272,1650412120,269540329,atracsys,0.012366976737976074,0.001127292275428772,1.3173889160156251,0.005521211159144252,-0.010921688194955016,0.23713035774076277,0.9714007547825184
1650412120.301638,273,1650412120,278457124,atracsys,0.01239211654663086,0.001215139150619507,1.3174228515625,0.00562707292782851,-0.010951449835515954,0.23711545087118108,0.9714034510721699
1650412120.3173714,274,1650412120,299487392,atracsys,0.012452322959899903,0.0013965530395507813,1.317525634765625,0.0056058355130952095,-0.01111440805317356,0.2370429609250012,0.9714194146802586
1650412120.3349376,275,1650412120,317313857,atracsys,0.012493117332458496,0.0015516654253005982,1.31760498046875,0.005601294248669792,-0.011257019567484029,0.23698557163251127,0.9714318009264516
1650412120.3509452,276,1650412120,329200873,atracsys,0.012519064903259278,0.0016344350576400757,1.3176800537109374,0.005558140120593679,-0.011223180277042347,0.2369487225018571,0.9714414291184039
1650412120.3673158,277,1650412120,350176455,atracsys,0.012558526039123535,0.0018207942247390747,1.3177894287109375,0.005565284051436331,-0.011167634100869416,0.2368946078802992,0.9714552261011596
1650412120.382817,278,1650412120,367990110,atracsys,0.012589255332946778,0.001969472050666809,1.31789697265625,0.005538610434108966,-0.011281273338635125,0.23682467247768046,0.9714711170035667
1650412120.4017825,279,1650412120,380010158,atracsys,0.012600942611694336,0.0020555131435394287,1.3179642333984376,0.005532800681283354,-0.011240648961028952,0.23679410837171713,0.9714790713998936
1650412120.4180288,280,1650412120,397866964,atracsys,0.012621362686157227,0.0021622369289398193,1.318063232421875,0.005415882747301547,-0.011229612305142534,0.2366681793824735,0.9715105438899411
1650412120.4352057,281,1650412120,409801669,atracsys,0.012639678955078126,0.002246156930923462,1.3181297607421876,0.0053732292470659495,-0.01123851381602243,0.23655405336221016,0.9715384727598666
1650412120.4515157,282,1650412120,427711366,atracsys,0.012653655052185058,0.0023376948833465578,1.31822998046875,0.005452223477486369,-0.011348503034042811,0.2363688859500525,0.9715818207916249
1650412120.4689167,283,1650412120,448594835,atracsys,0.012675924301147461,0.0024375741481781005,1.31835693359375,0.005304413179352097,-0.011436103471531987,0.23609794483017987,0.9716474870986783
1650412120.4845304,284,1650412120,469562105,atracsys,0.01269370460510254,0.002500607490539551,1.31848388671875,0.005171896208542793,-0.01148989117306775,0.23571308141815162,0.9717410031169823
1650412120.5015326,285,1650412120,478513640,atracsys,0.012704992294311523,0.002507378101348877,1.3185328369140625,0.005198988817685409,-0.01150222093394317,0.2355512285085569,0.971779958723666
1650412120.5177484,286,1650412120,499404011,atracsys,0.012725110054016114,0.0025252315998077392,1.3186776123046875,0.005090642761178228,-0.011501622252063857,0.23509975514478995,0.971889861647249
1650412120.5354557,287,1650412120,508354311,atracsys,0.012741305351257325,0.0025378549098968506,1.3187379150390626,0.005157808520597562,-0.011430604017995378,0.23489173004834354,0.9719406429705184
1650412120.5522342,288,1650412120,529164080,atracsys,0.012781396865844726,0.002497142791748047,1.318880615234375,0.005185134384132587,-0.011263989266974103,0.23435791438958334,0.9720712961970315
1650412120.5696807,289,1650412120,550131770,atracsys,0.012830273628234863,0.0024405896663665773,1.3190079345703125,0.004898903959450835,-0.011292108914382416,0.23378173165810598,0.9722111863989219
1650412120.584853,290,1650412120,570977231,atracsys,0.012895041465759278,0.002326161861419678,1.319136474609375,0.0046832741765234585,-0.011413037252416276,0.23321949782790108,0.9723458620041349
1650412120.602763,291,1650412120,579996328,atracsys,0.012918343544006347,0.00225874400138855,1.3191787109375,0.004564061157110699,-0.011347795632372069,0.23304007899540627,0.9723902089500155
1650412120.6184244,292,1650412120,600869382,atracsys,0.012970087051391601,0.0021118981838226317,1.3193089599609376,0.004223402562760065,-0.011518879495373273,0.2327058116531528,0.9724697853963439
1650412120.6357727,293,1650412120,609836557,atracsys,0.01299491596221924,0.002055563688278198,1.31936181640625,0.003906266907853272,-0.011349719740615346,0.23257364207646425,0.9725047177016382
1650412120.6505134,294,1650412120,630706730,atracsys,0.013053050994873047,0.0018614854812622071,1.3194903564453124,0.0036105262371968257,-0.01146768960725884,0.23236578114783266,0.9725541629888382
1650412120.6676962,295,1650412120,651624866,atracsys,0.013104860305786134,0.0016851736307144166,1.3196378173828125,0.0031826830928987815,-0.011655372207518626,0.23226632695771238,0.9725771826382765
1650412120.6838164,296,1650412120,669480410,atracsys,0.013156533241271973,0.0015229426622390748,1.3197774658203125,0.002759677741312497,-0.011744578813016668,0.23221115298783462,0.9725905764890638
1650412120.701074,297,1650412120,681547988,atracsys,0.013182065010070802,0.0013944282531738281,1.3198658447265625,0.0024434972587785335,-0.011734744214366592,0.23223183633743963,0.972586602463097
1650412120.716709,298,1650412120,702317335,atracsys,0.013230727195739747,0.0011483662128448486,1.320010009765625,0.001909588783032848,-0.011627495906283071,0.2322222689307387,0.9725913698066053
1650412120.7341459,299,1650412120,711257140,atracsys,0.013255926132202148,0.0010275866985321046,1.3200687255859376,0.0016265990911140892,-0.011697790811347055,0.23218477505768104,0.9725999928526348
1650412120.7501416,300,1650412120,732198944,atracsys,0.013311960220336915,0.0007082312703132629,1.3202182617187501,0.0011558847376580332,-0.011599335636304865,0.23218067354151678,0.9726028244751694
1650412120.76791,301,1650412120,750120112,atracsys,0.013359797477722169,0.0004469967782497406,1.3203465576171876,0.0005462796566854747,-0.01167252794068817,0.2321463097926558,0.9726106849709512
1650412120.7833009,302,1650412120,762099064,atracsys,0.013396330833435059,0.00025679731369018555,1.320438720703125,0.00015554384048199329,-0.011587321178733165,0.23212683070024864,0.9726164939291708
1650412120.8012455,303,1650412120,779976979,atracsys,0.013448705673217773,-2.8708875179290773e-05,1.3205789794921876,-0.00041961546157410194,-0.011606333817463137,0.23214224415479895,0.9726125104156105
1650412120.8155618,304,1650412120,800854436,atracsys,0.013507872581481934,-0.0003405438959598541,1.3207598876953126,-0.0008560810810451665,-0.011513107816917157,0.23221612877264786,0.9725956945264685
1650412120.8341405,305,1650412120,812872634,atracsys,0.013530177116394043,-0.0005132953524589538,1.3208621826171876,-0.0010713764755601902,-0.011550599888688978,0.23225593996891264,0.9725855305030072
1650412120.8507366,306,1650412120,830723321,atracsys,0.0135775146484375,-0.0007920938730239869,1.3210172119140626,-0.001612775845938055,-0.011554715811163924,0.23224121083842322,0.9725882517719907
1650412120.8720832,307,1650412120,851621611,atracsys,0.013619773864746094,-0.0010632407665252686,1.3212109375,-0.0022661341174566732,-0.011848076310774494,0.23221908955246115,0.9725887014413245
