rosbagTimestamp,header,seq,stamp,secs,nsecs,frame_id,pose,position,x,y,z,orientation,x,y,z,w
1652216781599799582,,324,,1652216781,567798548,"""atracsys""",,,0.087195274353,0.031603521347,1.31883081055,,0.0303714642807,0.256263335193,-0.252593569845,0.932525155514
1652216781630856757,,325,,1652216781,597684449,"""atracsys""",,,0.0873502960205,0.0306344642639,1.32225354004,,0.0225751222921,0.258312656814,-0.252944496353,0.932085842049
1652216781665303847,,326,,1652216781,627488734,"""atracsys""",,,0.0872452316284,0.0297928733826,1.32585656738,,0.015602454789,0.264817591139,-0.252854659724,0.930426100173
1652216781699163990,,327,,1652216781,669314714,"""atracsys""",,,0.0871766433716,0.02878881073,1.3308347168,,0.00580811525176,0.274375844685,-0.252555244589,0.927846975574
1652216781731961815,,328,,1652216781,699150155,"""atracsys""",,,0.0875260925293,0.0279386024475,1.33406286621,,-0.00101830153944,0.279787500794,-0.251789554397,0.926455577866
1652216781765547654,,329,,1652216781,737970083,"""atracsys""",,,0.0885500488281,0.0266996593475,1.33774462891,,-0.00939347959797,0.283695033445,-0.249971743764,0.925712167933
1652216781798317735,,330,,1652216781,767792212,"""atracsys""",,,0.0894975814819,0.0257883434296,1.34029162598,,-0.0153676955655,0.286306454595,-0.248339322065,0.925267544609
1652216781830574041,,331,,1652216781,797655758,"""atracsys""",,,0.0905409622192,0.0248248615265,1.34261779785,,-0.020766932809,0.288908126896,-0.246362572698,0.92488178244
1652216781865999251,,332,,1652216781,827496714,"""atracsys""",,,0.0916983337402,0.0239313011169,1.34470349121,,-0.0258038766832,0.291000230758,-0.244155406191,0.924684358727
1652216781897301385,,333,,1652216781,869278615,"""atracsys""",,,0.0938442382813,0.0224962787628,1.34676342773,,-0.0324982109782,0.289412230873,-0.240656795027,0.925888078502
1652216781932759076,,334,,1652216781,899106492,"""atracsys""",,,0.0955395507812,0.0215144348145,1.34776403809,,-0.0361088015119,0.287413653397,-0.237640408291,0.927155101718
1652216781963636451,,335,,1652216781,928993956,"""atracsys""",,,0.0970625762939,0.0206356105804,1.34854980469,,-0.0394501322136,0.286311329105,-0.234867912296,0.928066039497
1652216781999118919,,336,,1652216781,970756879,"""atracsys""",,,0.0986641769409,0.0197156429291,1.34945727539,,-0.0423768757606,0.287023428789,-0.231402456656,0.928587451337
1652216782033459507,,337,,1652216782,732190,"""atracsys""",,,0.0997392807007,0.0191785259247,1.34966162109,,-0.0435978259683,0.286344851453,-0.229130290314,0.929303591771
1652216782066670141,,338,,1652216782,30490060,"""atracsys""",,,0.100413063049,0.0188329601288,1.34959143066,,-0.0441923436532,0.285124721812,-0.2278689647,0.929960571584
1652216782099306691,,339,,1652216782,69283086,"""atracsys""",,,0.100131462097,0.0190335960388,1.34920581055,,-0.0431960783683,0.28452215801,-0.228397637846,0.930062234176
1652216782131514800,,340,,1652216782,99208274,"""atracsys""",,,0.0989173965454,0.0196655731201,1.34874719238,,-0.0411827781511,0.285105503177,-0.230834371735,0.92937308099
1652216782164322186,,341,,1652216782,132000004,"""atracsys""",,,0.0967488861084,0.020846157074,1.34801843262,,-0.0379180133122,0.285831937162,-0.235325246011,0.928161815932
1652216782198779626,,342,,1652216782,170856056,"""atracsys""",,,0.0933169250488,0.0227772312164,1.34702124023,,-0.0331485774211,0.287001753531,-0.242690802265,0.926084412881
1652216782231469033,,343,,1652216782,197611909,"""atracsys""",,,0.0902810668945,0.0244793872833,1.34646826172,,-0.0288666752162,0.289332895287,-0.248897257577,0.923852448142
1652216782265986064,,344,,1652216782,230533786,"""atracsys""",,,0.0859624710083,0.0270356712341,1.34597741699,,-0.0234151099932,0.294402960132,-0.257631185687,0.920002609698
1652216782298199473,,345,,1652216782,260312733,"""atracsys""",,,0.0818913116455,0.0295212268829,1.34545666504,,-0.0179878810927,0.29905110546,-0.265955575715,0.916249149633
1652216782330323034,,346,,1652216782,302163519,"""atracsys""",,,0.0765339050293,0.0331176300049,1.34436291504,,-0.0106603931379,0.302561981095,-0.277474288629,0.911784307149
1652216782365899251,,347,,1652216782,332005600,"""atracsys""",,,0.0730777053833,0.0355812835693,1.34323950195,,-0.00444167652498,0.304778596863,-0.284765005862,0.908844964689
1652216782400937246,,348,,1652216782,370837696,"""atracsys""",,,0.0696587219238,0.0383377609253,1.34094970703,,0.00318702671344,0.302596397249,-0.29265658691,0.907070771975
1652216782431945771,,349,,1652216782,403661079,"""atracsys""",,,0.0679223175049,0.0400729789734,1.33818359375,,0.00931147157495,0.296803553153,-0.297481696115,0.907372904494
1652216782469664962,,350,,1652216782,433499525,"""atracsys""",,,0.0669997711182,0.0412730293274,1.33521716309,,0.0152063788256,0.28987282001,-0.300410225063,0.9085682203
1652216782501265388,,351,,1652216782,472329582,"""atracsys""",,,0.0663163223267,0.0426705741882,1.33103967285,,0.0228724939852,0.280292638209,-0.303141888617,0.910504190737
1652216782533629642,,352,,1652216782,502140775,"""atracsys""",,,0.0662380371094,0.0435050811768,1.32751574707,,0.0292637373791,0.272977323196,-0.304108400273,0.912219872388
1652216782564858842,,353,,1652216782,531974835,"""atracsys""",,,0.0666178359985,0.0441793556213,1.32372583008,,0.0360545948913,0.265056517926,-0.304109030071,0.914310016527
1652216782599031862,,354,,1652216782,564831119,"""atracsys""",,,0.0673247299194,0.0448661727905,1.31927478027,,0.043513136853,0.255164188537,-0.303799147628,0.916899079348
1652216782631156013,,355,,1652216782,603688618,"""atracsys""",,,0.0684484710693,0.0455821762085,1.31410070801,,0.0526368577835,0.245712279839,-0.302246885427,0.919511640485
1652216782665618771,,356,,1652216782,633928546,"""atracsys""",,,0.0697926330566,0.0459510192871,1.30997192383,,0.0597037296267,0.237843197979,-0.29995946826,0.921895002289
1652216782698524890,,357,,1652216782,663339724,"""atracsys""",,,0.0719275131226,0.0459168205261,1.30554956055,,0.0668513186856,0.229249783917,-0.296084153687,0.924829504125
1652216782731367019,,358,,1652216782,705175813,"""atracsys""",,,0.0762049102783,0.0453903160095,1.29899536133,,0.0767052309881,0.215294026496,-0.288191025748,0.929898232266
1652216782763769722,,359,,1652216782,735016913,"""atracsys""",,,0.0800908660889,0.0447356491089,1.29407226563,,0.0836676276424,0.202727563019,-0.281580284303,0.934138001994
1652216782801242819,,360,,1652216782,764918895,"""atracsys""",,,0.0844244842529,0.0440449676514,1.28908374023,,0.0906759393808,0.188809669541,-0.274640789888,0.938456828647
1652216782832854186,,361,,1652216782,803685381,"""atracsys""",,,0.0902745361328,0.0433141403198,1.28281445313,,0.0996076605312,0.171425438526,-0.265240578502,0.943577802041
1652216782868968575,,362,,1652216782,833598472,"""atracsys""",,,0.095309387207,0.0427043914795,1.27802160645,,0.106372890309,0.156315888256,-0.257652064155,0.947557684325
1652216782899937548,,363,,1652216782,866360262,"""atracsys""",,,0.101398460388,0.0420261993408,1.2728659668,,0.113237993707,0.137749287806,-0.24915731201,0.951904892498
1652216782932864885,,364,,1652216782,905177435,"""atracsys""",,,0.108932052612,0.0413076248169,1.26705749512,,0.121135209192,0.114358033437,-0.239196350793,0.956573890011
1652216782964911623,,365,,1652216782,935004260,"""atracsys""",,,0.115192008972,0.040791973114,1.26281396484,,0.127206363594,0.0952170965368,-0.231395576745,0.959795984911
1652216782999488210,,366,,1652216782,964904233,"""atracsys""",,,0.121978355408,0.0401637992859,1.25888293457,,0.132773142302,0.0735078811183,-0.223549956186,0.962804913358
1652216783030927754,,367,,1652216782,994728493,"""atracsys""",,,0.129011001587,0.0394769020081,1.25543737793,,0.13789328883,0.0506857040064,-0.215834045322,0.965314490301
1652216783065704965,,368,,1652216783,36587190,"""atracsys""",,,0.139097625732,0.0384283866882,1.25154455566,,0.143753254284,0.0170443777732,-0.205348840262,0.967923728851
1652216783097898996,,369,,1652216783,66420543,"""atracsys""",,,0.146105072021,0.0375754127502,1.24950146484,,0.146947076071,-0.00484080229304,-0.197786093316,0.969156223092
1652216783132107566,,370,,1652216783,96236896,"""atracsys""",,,0.152694885254,0.0367973747253,1.24800976562,,0.149872226148,-0.0240643056255,-0.190194918433,0.96994078068
1652216783165675116,,371,,1652216783,138028126,"""atracsys""",,,0.160991867065,0.0356920089722,1.24684057617,,0.152104797679,-0.0465466309431,-0.179899998361,0.970738652914
1652216783199115775,,372,,1652216783,167857099,"""atracsys""",,,0.166343307495,0.0348460464478,1.24662658691,,0.152584504707,-0.0610790568652,-0.172911289203,0.97112769696
1652216783231157945,,373,,1652216783,197709886,"""atracsys""",,,0.171415008545,0.0339000854492,1.24687084961,,0.152086863114,-0.0747219158847,-0.166461981925,0.97137872631
1652216783265748112,,374,,1652216783,236526345,"""atracsys""",,,0.177582229614,0.0325065422058,1.24776660156,,0.150658301823,-0.093205362987,-0.158863884869,0.971276017663
1652216783302745106,,375,,1652216783,266461249,"""atracsys""",,,0.181669418335,0.0314167022705,1.24884472656,,0.148424838249,-0.105689195111,-0.153811961338,0.971154849639
1652216783334820486,,376,,1652216783,296235554,"""atracsys""",,,0.184839126587,0.0302715358734,1.25021691895,,0.145773700526,-0.115488155409,-0.149697747437,0.971083466344
1652216783368037872,,377,,1652216783,338032607,"""atracsys""",,,0.187624862671,0.0287077007294,1.25248986816,,0.14082796308,-0.12447776077,-0.145491723718,0.971341819453
1652216783398349900,,378,,1652216783,367881006,"""atracsys""",,,0.18894934082,0.0274921112061,1.25436669922,,0.136491512147,-0.128091235887,-0.142970924137,0.971865225868
1652216783432827127,,379,,1652216783,397717791,"""atracsys""",,,0.189990692139,0.0262271366119,1.25640380859,,0.131585860727,-0.132087324025,-0.141005674132,0.972293937012
1652216783466100545,,380,,1652216783,439515736,"""atracsys""",,,0.190791397095,0.024521944046,1.25934008789,,0.124621184479,-0.135798110623,-0.139087146765,0.972976463814
1652216783498812177,,381,,1652216783,469352156,"""atracsys""",,,0.190463699341,0.0233235931396,1.26146508789,,0.119063710005,-0.134553579027,-0.138245042845,0.973964822496
1652216783531890728,,382,,1652216783,499215364,"""atracsys""",,,0.189566711426,0.0221728458405,1.26367565918,,0.113319481693,-0.131308226482,-0.138070531664,0.975117107333
1652216783566610400,,383,,1652216783,538064485,"""atracsys""",,,0.18798348999,0.0206338806152,1.26670849609,,0.105151635684,-0.127241933681,-0.138892388173,0.976453546429
1652216783598591896,,384,,1652216783,567874640,"""atracsys""",,,0.186555587769,0.0194712429047,1.26912805176,,0.0986355346419,-0.124938303218,-0.140163627087,0.977249000683
1652216783634770135,,385,,1652216783,600717974,"""atracsys""",,,0.184653945923,0.018247877121,1.27186169434,,0.0915724052184,-0.120764391203,-0.142035624214,0.978190338265
1652216783668711251,,386,,1652216783,639500845,"""atracsys""",,,0.181668746948,0.0168493270874,1.27526037598,,0.0821866635067,-0.112689296762,-0.144990628642,0.979553057442
1652216783700687907,,387,,1652216783,669360132,"""atracsys""",,,0.178953765869,0.0158769054413,1.2779161377,,0.0747900323353,-0.104966331924,-0.147726028998,0.980594483251
1652216783735322041,,388,,1652216783,699222509,"""atracsys""",,,0.17630569458,0.0149235515594,1.28062060547,,0.0674577794957,-0.0976904033929,-0.150553676595,0.981447718187
1652216783768953134,,389,,1652216783,741013856,"""atracsys""",,,0.172632614136,0.0136580314636,1.28460131836,,0.0570186405992,-0.0885344800203,-0.154811683633,0.982315561865
1652216783801609076,,390,,1652216783,770849347,"""atracsys""",,,0.169728118896,0.0128610124588,1.28749987793,,0.0498432056736,-0.0812834407935,-0.158407817217,0.982759187464
1652216783834156153,,391,,1652216783,800744122,"""atracsys""",,,0.166459640503,0.0121621284485,1.29041577148,,0.0425871028048,-0.0739399256036,-0.162838243926,0.982956220994
1652216783866931762,,392,,1652216783,830597648,"""atracsys""",,,0.162796600342,0.0116929512024,1.29328967285,,0.0352370747967,-0.0653078343981,-0.168131836553,0.982967405799
1652216783900340737,,393,,1652216783,872435872,"""atracsys""",,,0.156615615845,0.0114243106842,1.29717944336,,0.0254388429174,-0.049343767602,-0.176892539627,0.982663262412
1652216783934361519,,394,,1652216783,902240866,"""atracsys""",,,0.151524856567,0.0116258192062,1.29978857422,,0.019788500292,-0.0357912158055,-0.184344122647,0.982010513474
1652216783967142536,,395,,1652216783,932057825,"""atracsys""",,,0.146360855103,0.0120940294266,1.30212561035,,0.0151684428465,-0.022699973563,-0.192371979977,0.980942226057
1652216784000516315,,396,,1652216783,949940050,"""atracsys""",,,0.143404693604,0.0124510765076,1.30337597656,,0.012693654747,-0.0166576747879,-0.197354015223,0.980108558107
1652216784034121958,,397,,1652216783,941018804,"""atracsys""",,,0.144877059937,0.0122724313736,1.30276464844,,0.0138996167568,-0.0197720046432,-0.194806352111,0.980543907055
1652216784068959074,,398,,1652216784,42530749,"""atracsys""",,,0.126999328613,0.0160504302979,1.30804504395,,0.005607119915,0.0192767283417,-0.225780870904,0.973971234834
1652216784102085270,,399,,1652216784,72387122,"""atracsys""",,,0.121176521301,0.0178556022644,1.30917822266,,0.00417402013109,0.0304752550534,-0.236643308288,0.971109561804
1652216784135672914,,400,,1652216784,102343954,"""atracsys""",,,0.113920974731,0.0203555335999,1.31062866211,,0.00375462962591,0.048671356076,-0.249025707035,0.967265836826
1652216784168764137,,401,,1652216784,132062546,"""atracsys""",,,0.105923439026,0.0234445343018,1.31226708984,,0.004442505332,0.0718817656727,-0.262050520184,0.962363133532
1652216784200690964,,402,,1652216784,173923174,"""atracsys""",,,0.0960131530762,0.0279573860168,1.31401611328,,0.00675172434774,0.0988343718048,-0.279135778884,0.955127948557
1652216784235898498,,403,,1652216784,203738734,"""atracsys""",,,0.090416595459,0.0308378105164,1.31475061035,,0.00918510269179,0.111388522767,-0.289610461733,0.950596660703
1652216784266749765,,404,,1652216784,233583603,"""atracsys""",,,0.0856903457642,0.033605632782,1.31496826172,,0.0122370094722,0.122181871793,-0.298590604122,0.94644888765
1652216784300455268,,405,,1652216784,272426314,"""atracsys""",,,0.0804747085571,0.0370121955872,1.3144921875,,0.017679861758,0.133477892579,-0.308656394979,0.941595616238
1652216784332815154,,406,,1652216784,302210537,"""atracsys""",,,0.0769866409302,0.0395597419739,1.31372375488,,0.022751546114,0.140996038513,-0.315262622543,0.938196121875
1652216784369946274,,407,,1652216784,335092147,"""atracsys""",,,0.073556678772,0.0423096427917,1.31262878418,,0.0290469379014,0.149757607998,-0.321333051894,0.934598311579
1652216784407892785,,408,,1652216784,373958010,"""atracsys""",,,0.070326171875,0.0452686538696,1.31070422363,,0.0370437717472,0.156536165289,-0.327400543556,0.931092407879
1652216784436355361,,409,,1652216784,403711786,"""atracsys""",,,0.0686112823486,0.0471762695313,1.30892785645,,0.0426130225653,0.15906928175,-0.331043923058,0.929134551568
1652216784469652837,,410,,1652216784,433712211,"""atracsys""",,,0.0676458511353,0.0486140136719,1.30695898438,,0.0479397897309,0.158834241509,-0.333422644499,0.92806400664
1652216784499737477,,411,,1652216784,463458749,"""atracsys""",,,0.0672932052612,0.04968409729,1.30490856934,,0.0530343036271,0.157402705614,-0.334639145779,0.927592794828
1652216784534452748,,412,,1652216784,505216494,"""atracsys""",,,0.0671854705811,0.0508442649841,1.30219372559,,0.0593668275031,0.155059238076,-0.335504848952,0.927291059382
1652216784566163754,,413,,1652216784,535083704,"""atracsys""",,,0.0670753936768,0.051625743866,1.30042102051,,0.0638276900561,0.154861912035,-0.335759962529,0.926935306127
1652216784601250594,,414,,1652216784,564881294,"""atracsys""",,,0.0670838470459,0.0523798446655,1.29866271973,,0.0683053806725,0.153998850945,-0.335745874739,0.92676503844
1652216784640263219,,415,,1652216784,606799756,"""atracsys""",,,0.0673820114136,0.0532156219482,1.29615856934,,0.073865362353,0.151928279209,-0.335544621875,0.926753210381
1652216784667775820,,416,,1652216784,636556794,"""atracsys""",,,0.0676685409546,0.0537765426636,1.2944263916,,0.0775814516486,0.150361413513,-0.335252088604,0.926810984383
1652216784700624756,,417,,1652216784,666474726,"""atracsys""",,,0.0681125793457,0.0542216758728,1.29268615723,,0.0814067009589,0.148825212816,-0.334443862704,0.927022819443
1652216784732611698,,418,,1652216784,696256914,"""atracsys""",,,0.0690725402832,0.0543265686035,1.2908001709,,0.0851704504048,0.146370475112,-0.332726223745,0.927693342881
1652216784766953476,,419,,1652216784,735098381,"""atracsys""",,,0.0711586151123,0.0540373535156,1.28807373047,,0.0892592778538,0.139820875092,-0.329397793506,0.929505243578
1652216784799346284,,420,,1652216784,764960230,"""atracsys""",,,0.0731835861206,0.0535467185974,1.28589611816,,0.0926950715506,0.135065857977,-0.325716967998,0.931167704808
1652216784833512181,,421,,1652216784,806720130,"""atracsys""",,,0.076907585144,0.0524966659546,1.28254772949,,0.0973870691593,0.126372867697,-0.319105367559,0.934193460406
1652216784867852029,,422,,1652216784,836624269,"""atracsys""",,,0.080305015564,0.0514896736145,1.27983178711,,0.100783713425,0.117124107251,-0.313649232035,0.936882461066
1652216784900614112,,423,,1652216784,866438222,"""atracsys""",,,0.0839685058594,0.0504580688477,1.27704699707,,0.104152894068,0.107332708794,-0.307844884927,0.939608105066
1652216784934527662,,424,,1652216784,908337753,"""atracsys""",,,0.0895894393921,0.0489067764282,1.27322460937,,0.108985854863,0.0941222974377,-0.298369794334,0.943524531951
1652216784967047369,,425,,1652216784,938114257,"""atracsys""",,,0.0940308456421,0.0475957832336,1.27055773926,,0.112252374649,0.0845822364598,-0.290814174934,0.946399685819
1652216785000637759,,426,,1652216784,967927856,"""atracsys""",,,0.099003326416,0.0462039604187,1.26793151855,,0.115632454498,0.0737179498243,-0.282343696933,0.949461339994
1652216785033407166,,427,,1652216784,997810439,"""atracsys""",,,0.104688728333,0.0445568504333,1.26537805176,,0.118593332464,0.0613649487187,-0.272866038561,0.952740305416
1652216785067260743,,428,,1652216785,36625060,"""atracsys""",,,0.113142295837,0.0421322021484,1.26225537109,,0.121806017938,0.0416563536943,-0.259362927262,0.957161905924
1652216785102027170,,429,,1652216785,66441723,"""atracsys""",,,0.119953727722,0.040331943512,1.26008276367,,0.12436772685,0.0265633254335,-0.248529481038,0.960239634318
1652216785134392729,,430,,1652216785,99314089,"""atracsys""",,,0.127549507141,0.0384899902344,1.25790808105,,0.127449529422,0.00994996467926,-0.23646540001,0.96319350613
1652216785168748904,,431,,1652216785,138160165,"""atracsys""",,,0.136615631104,0.0366050224304,1.25570874023,,0.130741081018,-0.00914597826946,-0.221948318136,0.966210155656
1652216785200539263,,432,,1652216785,167918866,"""atracsys""",,,0.143416732788,0.0354192352295,1.25407849121,,0.133770780377,-0.0238574964966,-0.211547725689,0.967875900069
1652216785234644740,,433,,1652216785,197791123,"""atracsys""",,,0.150173995972,0.0345733070374,1.25240393066,,0.137197819772,-0.0399133035595,-0.201984114691,0.968909750112
1652216785266859693,,434,,1652216785,239641061,"""atracsys""",,,0.159175460815,0.0339149780273,1.25014868164,,0.142344252064,-0.062962510874,-0.190272810637,0.969314238862
1652216785301200373,,435,,1652216785,269464882,"""atracsys""",,,0.164540390015,0.0338281784058,1.24861376953,,0.14616771211,-0.0773355725001,-0.183803392321,0.96895331267
1652216785334905381,,436,,1652216785,299272515,"""atracsys""",,,0.16844770813,0.0342108688354,1.24706652832,,0.150595282996,-0.0876394048857,-0.179302536951,0.968241186737
1652216785366666245,,437,,1652216785,338160121,"""atracsys""",,,0.170774871826,0.0351869010925,1.24502368164,,0.156253428317,-0.0929386278106,-0.17691802936,0.967288627291
1652216785401274578,,438,,1652216785,367965769,"""atracsys""",,,0.170125045776,0.0363703651428,1.24351318359,,0.16017776125,-0.0897731242526,-0.177827872365,0.966778733099
1652216785434378165,,439,,1652216785,400811037,"""atracsys""",,,0.167670974731,0.0378189888,1.24202404785,,0.164041732289,-0.0824792156426,-0.181242022876,0.966146375141
1652216785467025233,,440,,1652216785,439615918,"""atracsys""",,,0.163271087646,0.0395934867859,1.24063745117,,0.167662586792,-0.0698570881446,-0.187154552398,0.965392364659
1652216785501208569,,441,,1652216785,469461315,"""atracsys""",,,0.159140411377,0.0409281044006,1.24002661133,,0.169326065723,-0.0589377476409,-0.192659775318,0.964747239615
1652216785533616336,,442,,1652216785,499330337,"""atracsys""",,,0.154461257935,0.0420721588135,1.23989819336,,0.170114557076,-0.0461405345934,-0.198573460474,0.964106150449
1652216785568129719,,443,,1652216785,541130246,"""atracsys""",,,0.146985977173,0.0435177230835,1.24070922852,,0.169019288922,-0.0260892283667,-0.207969196953,0.963068349212
1652216785600857132,,444,,1652216785,570974751,"""atracsys""",,,0.140678817749,0.0444496917725,1.2420982666,,0.166665757186,-0.0077237311771,-0.21502351272,0.962251400797
1652216785634349063,,445,,1652216785,600873436,"""atracsys""",,,0.134252304077,0.0452611083984,1.24407275391,,0.163365693813,0.0110366552649,-0.222284275851,0.961134508295
1652216785668088612,,446,,1652216785,630731016,"""atracsys""",,,0.127965660095,0.0458505783081,1.24665136719,,0.15897761896,0.0287534170599,-0.229706278921,0.959757460561
1652216785701734819,,447,,1652216785,672512079,"""atracsys""",,,0.119452888489,0.0462685813904,1.25130053711,,0.151158673994,0.055219447525,-0.239010511137,0.957588556457
1652216785734155112,,448,,1652216785,702291937,"""atracsys""",,,0.1140206604,0.0462527046204,1.25513952637,,0.144986473287,0.0732802351201,-0.244566114726,0.955926956013
1652216785768825423,,449,,1652216785,741136647,"""atracsys""",,,0.107543586731,0.0458792686462,1.26076416016,,0.135146426361,0.0938115524893,-0.251931494004,0.953658931899
1652216785800986713,,450,,1652216785,771055789,"""atracsys""",,,0.102630699158,0.0455133705139,1.26569763184,,0.126582370019,0.109805107049,-0.257657733492,0.951594574616
1652216785836307737,,451,,1652216785,800797385,"""atracsys""",,,0.0980545654297,0.0450011024475,1.27097363281,,0.117699629259,0.124920623476,-0.263129999642,0.949370443184
1652216785868071684,,452,,1652216785,830671492,"""atracsys""",,,0.0941365432739,0.0442852287292,1.27645129395,,0.10763045865,0.137171191276,-0.268503873888,0.947367625773
1652216785901797902,,453,,1652216785,872510577,"""atracsys""",,,0.0897026596069,0.043080493927,1.284140625,,0.0928566063991,0.149726365004,-0.275522618437,0.945011615273
1652216785935548366,,454,,1652216785,902361187,"""atracsys""",,,0.0868699264526,0.0421770133972,1.28981274414,,0.0816221209135,0.158846555341,-0.28004147223,0.943229757305
1652216785971042160,,455,,1652216785,941100936,"""atracsys""",,,0.0836535339355,0.040987651825,1.29742260742,,0.0667367295006,0.17158812261,-0.284878714894,0.940716664525
1652216786001645296,,456,,1652216785,974012236,"""atracsys""",,,0.0817962188721,0.0397527618408,1.30367858887,,0.0543331330406,0.180482769057,-0.287574867371,0.939028527993
1652216786034440413,,457,,1652216786,3780469,"""atracsys""",,,0.0811652297974,0.0383058853149,1.30897998047,,0.0424440865465,0.18511378235,-0.288926317928,0.938324554677
1652216786067952398,,458,,1652216786,33680339,"""atracsys""",,,0.0812819747925,0.0366529693604,1.31393701172,,0.0308204130998,0.18673606978,-0.289343036404,0.938328487079
1652216786107377205,,459,,1652216786,72479115,"""atracsys""",,,0.0820069580078,0.0344461517334,1.3200246582,,0.0161163648612,0.188836618328,-0.28850676111,0.938533346853
1652216786136168574,,460,,1652216786,102303164,"""atracsys""",,,0.0832038879395,0.0326006622314,1.32439880371,,0.00533333082742,0.189457076042,-0.28652227821,0.939139263373
1652216786168374026,,461,,1652216786,135149702,"""atracsys""",,,0.0852587814331,0.0303497028351,1.3286541748,,-0.00621195889962,0.187045427094,-0.28317238447,0.940632138747
1652216786202010546,,462,,1652216786,174033676,"""atracsys""",,,0.0885249176025,0.0275358142853,1.33310510254,,-0.0194148121392,0.18111083509,-0.27786406313,0.943193242609
1652216786238083494,,463,,1652216786,203837662,"""atracsys""",,,0.0914360122681,0.0253428325653,1.33606945801,,-0.0287687503463,0.175268920411,-0.273042694579,0.945463299911
1652216786268461354,,464,,1652216786,233628240,"""atracsys""",,,0.0947010269165,0.0231873455048,1.33839807129,,-0.0374772803737,0.167800298608,-0.267569568023,0.948074385009
1652216786300777088,,465,,1652216786,263533333,"""atracsys""",,,0.0984292297363,0.0209935951233,1.34007678223,,-0.0443086979096,0.158848946779,-0.261044913018,0.951135797236
1652216786334499939,,466,,1652216786,305319226,"""atracsys""",,,0.104124252319,0.0180404777527,1.34127087402,,-0.0518190137857,0.144339348565,-0.251023966032,0.955755152088
1652216786368797899,,467,,1652216786,335116374,"""atracsys""",,,0.108543685913,0.0160133476257,1.34132275391,,-0.0552164132344,0.132203955817,-0.243119177231,0.959357247035
1652216786401962471,,468,,1652216786,364979337,"""atracsys""",,,0.113359848022,0.0140180521011,1.34077453613,,-0.0571606267534,0.119092102897,-0.234324057806,0.963141718394
1652216786435228933,,469,,1652216786,406783660,"""atracsys""",,,0.120751052856,0.0113259544373,1.33911120605,,-0.0575155634055,0.0995220814184,-0.220629019075,0.968560866037
1652216786468164004,,470,,1652216786,436684525,"""atracsys""",,,0.126751495361,0.00945589828491,1.33722631836,,-0.0560815941507,0.0817311144781,-0.209967664765,0.972670786791
1652216786503227396,,471,,1652216786,466506080,"""atracsys""",,,0.133114013672,0.00777230262756,1.33486352539,,-0.053197525988,0.063515800302,-0.198856959338,0.976520187228
1652216786534957246,,472,,1652216786,505319480,"""atracsys""",,,0.141265457153,0.00602938270569,1.33134460449,,-0.0480465171501,0.0401743749225,-0.185138010519,0.980714774463
1652216786569732138,,473,,1652216786,535152190,"""atracsys""",,,0.147149002075,0.00507773113251,1.3283861084,,-0.0430030116657,0.0209009631489,-0.17586946697,0.983251657164
1652216786602413651,,474,,1652216786,565001547,"""atracsys""",,,0.152394012451,0.00450455999374,1.3253157959,,-0.0373740120518,0.00219454727758,-0.168228596569,0.985036804633
1652216786636727365,,475,,1652216786,606780420,"""atracsys""",,,0.157796112061,0.00438210391998,1.32081958008,,-0.0278706548094,-0.0154301168863,-0.160442278366,0.986530999719
1652216786668542280,,476,,1652216786,636659444,"""atracsys""",,,0.160978103638,0.00457427358627,1.31750830078,,-0.0201165246236,-0.0254322131527,-0.156093760295,0.987209838873
1652216786701176467,,477,,1652216786,666525605,"""atracsys""",,,0.164158126831,0.00489481449127,1.31405603027,,-0.0127470593438,-0.0355582860408,-0.151743748065,0.987697805857
1652216786736550647,,478,,1652216786,708308502,"""atracsys""",,,0.168966583252,0.00553950452805,1.30909765625,,-0.00146904538824,-0.0511882481347,-0.145712008584,0.988000817668
1652216786768597692,,479,,1652216786,738139294,"""atracsys""",,,0.172403991699,0.00619488239288,1.30542492676,,0.00746262295501,-0.0616307836734,-0.141834712774,0.987941734119
1652216786802593642,,480,,1652216786,726205270,"""atracsys""",,,0.171069519043,0.00589324569702,1.30690612793,,0.00389342589378,-0.0580620365167,-0.143271979148,0.987971042663
1652216786835035310,,481,,1652216786,806802784,"""atracsys""",,,0.177172622681,0.00835315895081,1.29711621094,,0.0279566580379,-0.0803081920907,-0.138230561426,0.986742788898
1652216786868681799,,482,,1652216786,836727554,"""atracsys""",,,0.177781311035,0.00958091545105,1.29343457031,,0.0367136395665,-0.0835415487109,-0.138566424597,0.986140083499
1652216786902002405,,483,,1652216786,869512654,"""atracsys""",,,0.178224899292,0.011120513916,1.28938720703,,0.0468431251837,-0.0880077218156,-0.139864756302,0.98513867677
1652216786935946943,,484,,1652216786,908296289,"""atracsys""",,,0.178159851074,0.0131287927628,1.28435742188,,0.0590633275287,-0.089203008121,-0.141893995402,0.984083553745
1652216786969134552,,485,,1652216786,938166818,"""atracsys""",,,0.17823600769,0.0148514785767,1.2803380127,,0.0689976564639,-0.0897171700153,-0.143186000196,0.983202889619
1652216787002523801,,486,,1652216786,968006111,"""atracsys""",,,0.179023803711,0.0166246967316,1.27621789551,,0.0789626820456,-0.0938132196887,-0.144202632686,0.981921369246
1652216787035825844,,487,,1652216786,997886539,"""atracsys""",,,0.179915222168,0.018515335083,1.27201220703,,0.089657790282,-0.0992948781888,-0.145515883954,0.9802689097
1652216787068959508,,488,,1652216787,40279052,"""atracsys""",,,0.180504074097,0.0214858131409,1.26609106445,,0.104294767799,-0.102961848316,-0.147992607829,0.978069346841
1652216787103688203,,489,,1652216787,69502463,"""atracsys""",,,0.180640762329,0.0236637649536,1.26198193359,,0.114582459245,-0.104387814559,-0.149917482838,0.976472627647
1652216787135829460,,490,,1652216787,99668403,"""atracsys""",,,0.180721038818,0.0258564395905,1.25809265137,,0.124461214214,-0.106054910028,-0.152068826478,0.974749626432
1652216787169179398,,491,,1652216787,141138551,"""atracsys""",,,0.180172424316,0.0288688659668,1.25314074707,,0.137054917148,-0.106606497201,-0.155934563578,0.972386454205
1652216787202897310,,492,,1652216787,171052761,"""atracsys""",,,0.179074249268,0.030899438858,1.25005163574,,0.145003889378,-0.104620726908,-0.15929999874,0.970902614049
1652216787236504485,,493,,1652216787,200877686,"""atracsys""",,,0.177598220825,0.032788394928,1.24742333984,,0.15135862767,-0.102113205086,-0.163072739413,0.969572452598
1652216787269078671,,494,,1652216787,239680448,"""atracsys""",,,0.174932113647,0.035000793457,1.24457641602,,0.158381456201,-0.0976715962331,-0.169140985734,0.967867191595
1652216787304624254,,495,,1652216787,269522452,"""atracsys""",,,0.172021316528,0.0366507835388,1.24277978516,,0.162657953837,-0.0926216666464,-0.174845292918,0.966639922859
1652216787335846601,,496,,1652216787,299371634,"""atracsys""",,,0.168237075806,0.0383166122437,1.24126403809,,0.166425169649,-0.0843978775672,-0.181078879507,0.965603490345
1652216787370305742,,497,,1652216787,341140030,"""atracsys""",,,0.16185319519,0.0406331367493,1.23969958496,,0.170320631798,-0.067907953084,-0.190230203396,0.964464546786
1652216787403773355,,498,,1652216787,371062610,"""atracsys""",,,0.156941085815,0.0422848510742,1.23891760254,,0.172253758827,-0.0559303661064,-0.197287325572,0.963471923766
1652216787436328064,,499,,1652216787,400857446,"""atracsys""",,,0.151804016113,0.0438846359253,1.23845263672,,0.174007993118,-0.0438341653169,-0.204823069078,0.962209589775
1652216787469586045,,500,,1652216787,442660752,"""atracsys""",,,0.143985534668,0.046174495697,1.23845092773,,0.17525858923,-0.0241235084613,-0.215565640345,0.960330119252
1652216787503000999,,501,,1652216787,472513107,"""atracsys""",,,0.138187042236,0.0476433410645,1.23903552246,,0.175092126997,-0.00954019904273,-0.223405625946,0.958823058735
1652216787536162605,,502,,1652216787,502354288,"""atracsys""",,,0.132386077881,0.0489047966003,1.24019616699,,0.17352211684,0.00498724321926,-0.231229693928,0.957286807085
1652216787570438755,,503,,1652216787,541156350,"""atracsys""",,,0.124732818604,0.0502573127747,1.24256201172,,0.170138913168,0.0244298200662,-0.241222261385,0.955127088261
1652216787602825876,,504,,1652216787,571033287,"""atracsys""",,,0.118942062378,0.0509777984619,1.24511218262,,0.166192645214,0.0402184069798,-0.24845958027,0.953430816257
1652216787637345868,,505,,1652216787,600881400,"""atracsys""",,,0.113557899475,0.0512909736633,1.24828955078,,0.160941153335,0.0546426272137,-0.255207107465,0.951830584061
1652216787672365740,,506,,1652216787,642710001,"""atracsys""",,,0.106541641235,0.0512449798584,1.25353869629,,0.151730874141,0.0732985101888,-0.264344999655,0.949592960902
1652216787703322941,,507,,1652216787,672500691,"""atracsys""",,,0.101737739563,0.0510848045349,1.2577298584,,0.143993290226,0.086335404451,-0.270747224953,0.947896656017
1652216787736671035,,508,,1652216787,702337280,"""atracsys""",,,0.097198638916,0.0508000602722,1.26226965332,,0.135997634943,0.0996876725652,-0.276607631687,0.946073585574
1652216787769269739,,509,,1652216787,732224734,"""atracsys""",,,0.0930964584351,0.0503248748779,1.26702502441,,0.127583136565,0.111530584885,-0.281966241599,0.944340251444
1652216787804388698,,510,,1652216787,774102453,"""atracsys""",,,0.0879940109253,0.0496183128357,1.2738001709,,0.115625731066,0.127915416272,-0.28843642027,0.941845405604
1652216787836483862,,511,,1652216787,803856973,"""atracsys""",,,0.0849604415894,0.0488905258179,1.27874169922,,0.106528150631,0.13895554716,-0.292044846072,0.940240882391
1652216787871259234,,512,,1652216787,833742347,"""atracsys""",,,0.0826514816284,0.0478534736633,1.28374401855,,0.0968086037746,0.148099118048,-0.294878260917,0.939010945999
1652216787904228020,,513,,1652216787,872627611,"""atracsys""",,,0.0805276412964,0.0461781044006,1.2902331543,,0.083064313877,0.156004852582,-0.297940390328,0.938080129596
1652216787939261016,,514,,1652216787,905384073,"""atracsys""",,,0.0789846420288,0.0447464752197,1.29588513184,,0.0710353773406,0.162783375305,-0.300244069494,0.937181437409
1652216787970227661,,515,,1652216787,935233660,"""atracsys""",,,0.0774985198975,0.0436260528564,1.30116564941,,0.0605266283335,0.170164803377,-0.302184993629,0.935983277938
1652216788005884177,,516,,1652216787,974026409,"""atracsys""",,,0.0756166152954,0.0423978042603,1.30804833984,,0.0468719818118,0.180606969945,-0.304826909689,0.933951120165
1652216788043726101,,517,,1652216788,15799156,"""atracsys""",,,0.0740894470215,0.0411372146606,1.31518615723,,0.0329748915496,0.191215151733,-0.306809044994,0.931781966012
1652216788075965704,,518,,1652216788,45677911,"""atracsys""",,,0.0738777618408,0.0399932556152,1.31965759277,,0.0234183563351,0.195434422877,-0.307140639982,0.93108624424
1652216788109102074,,519,,1652216788,75563292,"""atracsys""",,,0.07440625,0.0385489845276,1.32370373535,,0.0138041593679,0.197749125435,-0.306294964995,0.931068269781
1652216788141709666,,520,,1652216788,105365770,"""atracsys""",,,0.0754693450928,0.0368995170593,1.32743505859,,0.00437853844807,0.198643076778,-0.30436610381,0.931602399793
1652216788174810170,,521,,1652216788,144178414,"""atracsys""",,,0.0777555007935,0.0345147781372,1.33140344238,,-0.00673315871257,0.197260017611,-0.300149976135,0.933248703107
1652216788208553204,,522,,1652216788,177007222,"""atracsys""",,,0.0806930236816,0.0321043624878,1.33404064941,,-0.0152738076293,0.192628466188,-0.294731703009,0.935838772469
1652216788243715958,,523,,1652216788,215798092,"""atracsys""",,,0.0847490768433,0.0291548843384,1.33652661133,,-0.024468342428,0.186318654756,-0.286921577993,0.93934161368
1652216788273015035,,524,,1652216788,236707851,"""atracsys""",,,0.0870938186646,0.0275805168152,1.33752575684,,-0.028850328412,0.182739034896,-0.282255853875,0.941331895045
1652216788309286024,,525,,1652216788,275548815,"""atracsys""",,,0.0922266540527,0.0244924526215,1.3387512207,,-0.0355521834188,0.173842713109,-0.272188542123,0.945742116483
1652216788344023292,,526,,1652216788,305370948,"""atracsys""",,,0.096815322876,0.0219944705963,1.33902282715,,-0.0400903692573,0.164355981898,-0.263380220332,0.949742456167
1652216788374545468,,527,,1652216788,335194892,"""atracsys""",,,0.101941253662,0.0194840145111,1.33867932129,,-0.0435890120243,0.152130868019,-0.253771203892,0.9542307756
1652216788407862981,,528,,1652216788,377042945,"""atracsys""",,,0.109820343018,0.0160619773865,1.33734399414,,-0.046676698145,0.131809383847,-0.239261212665,0.960833827618
1652216788441659767,,529,,1652216788,406823519,"""atracsys""",,,0.115491172791,0.0138878564835,1.33585388184,,-0.046919155655,0.117461158093,-0.228660036206,0.965254400153
