rosbagTimestamp,header,seq,stamp,secs,nsecs,frame_id,pose,position,x,y,z,orientation,x,y,z,w
1649362088914189100,,38368,,1649362088,913001015,"""atracsys""",,,0.191475845337,-0.00425659370422,1.40270141602,,-0.127846293448,-0.0440298769051,-0.0726830767361,0.988146682202
1649362088924118995,,38369,,1649362088,921945109,"""atracsys""",,,0.191478118896,-0.00425775957108,1.40269677734,,-0.127974158116,-0.0442473523615,-0.0726752020039,0.988120995464
1649362088934196949,,38370,,1649362088,933910044,"""atracsys""",,,0.191476196289,-0.00425766086578,1.40270239258,,-0.127922095662,-0.044011307027,-0.0726781684633,0.988138060255
1649362088944236993,,38371,,1649362088,942806503,"""atracsys""",,,0.191475921631,-0.00425354814529,1.40269726563,,-0.128049211107,-0.0443368362544,-0.0726455125788,0.988109444337
1649362088954271078,,38372,,1649362088,951795835,"""atracsys""",,,0.191477554321,-0.00424800634384,1.40269335937,,-0.127980719685,-0.0442046239995,-0.072677756767,0.988121870154
1649362088964337110,,38373,,1649362088,963708686,"""atracsys""",,,0.191479110718,-0.00423811912537,1.40270117187,,-0.127867898074,-0.0442987763106,-0.0726722011172,0.988132668342
1649362088974364042,,38374,,1649362088,972687350,"""atracsys""",,,0.191476837158,-0.00424490499496,1.40269030762,,-0.127927947123,-0.0443271313831,-0.0726646982296,0.988124176103
1649362088984474897,,38375,,1649362088,981633394,"""atracsys""",,,0.19147668457,-0.00424799823761,1.4026965332,,-0.127981726963,-0.0443717672532,-0.0726729765442,0.988114599788
1649362088994462013,,38376,,1649362088,993584822,"""atracsys""",,,0.191480148315,-0.00424686574936,1.40269128418,,-0.128161881326,-0.0443086673619,-0.0726617825578,0.98809490411
1649362089004539966,,38377,,1649362089,2548392,"""atracsys""",,,0.191479263306,-0.00425491666794,1.40269567871,,-0.128061250109,-0.0445224066512,-0.0726518732166,0.988099072383
1649362089014622926,,38378,,1649362089,11494432,"""atracsys""",,,0.19147833252,-0.00426187753677,1.40269873047,,-0.128186887261,-0.0445986459417,-0.0726518916588,0.988079341628
1649362089024614095,,38379,,1649362089,23429273,"""atracsys""",,,0.191479751587,-0.0042516283989,1.40270056152,,-0.128100930022,-0.0445761176654,-0.0726372934994,0.988092579192
1649362089034730911,,38380,,1649362089,32409700,"""atracsys""",,,0.191481018066,-0.00424574899673,1.40269677734,,-0.128148098415,-0.0444799832603,-0.0726495092724,0.988089897107
1649362089044764995,,38381,,1649362089,44305971,"""atracsys""",,,0.191480209351,-0.00424575853348,1.40270019531,,-0.128303478006,-0.044448556283,-0.0726502999272,0.988071089192
1649362089054873943,,38382,,1649362089,53297562,"""atracsys""",,,0.191483276367,-0.00424180030823,1.40269750977,,-0.128117867098,-0.0442416145704,-0.0726660144653,0.988103305334
1649362089065138101,,38383,,1649362089,62240640,"""atracsys""",,,0.191486495972,-0.00424288320541,1.40269958496,,-0.128154310496,-0.0446316644455,-0.0726409320488,0.988082882263
1649362089075068950,,38384,,1649362089,74148293,"""atracsys""",,,0.191481826782,-0.00425168991089,1.40269714355,,-0.128153167459,-0.0444756061496,-0.0726434726386,0.988089880533
1649362089085138082,,38385,,1649362089,83157426,"""atracsys""",,,0.191483581543,-0.00425942230225,1.4026932373,,-0.128274250467,-0.0442259115078,-0.0726729278723,0.988083210551
1649362089095143079,,38386,,1649362089,92076592,"""atracsys""",,,0.191486724854,-0.00425193023682,1.40269848633,,-0.128003729325,-0.0441712713584,-0.0726429369,0.988122941634
1649362089105312108,,38387,,1649362089,104068244,"""atracsys""",,,0.191483612061,-0.00425474023819,1.40269299316,,-0.12793337833,-0.0441287143318,-0.0726901463522,0.988130482226
1649362089115365982,,38388,,1649362089,112973596,"""atracsys""",,,0.191482467651,-0.00425069999695,1.40269665527,,-0.127978145008,-0.044145412994,-0.0726761388304,0.988124969706
1649362089125416994,,38389,,1649362089,124933955,"""atracsys""",,,0.191485748291,-0.00423871803284,1.40269543457,,-0.127796997708,-0.0439683524303,-0.0726729441571,0.988156543544
1649362089135459899,,38390,,1649362089,133890879,"""atracsys""",,,0.19148638916,-0.00423859262466,1.40268896484,,-0.127798413571,-0.0441001673772,-0.0726878379464,0.988149391004
1649362089145478963,,38391,,1649362089,142824776,"""atracsys""",,,0.191482192993,-0.00424662017822,1.40269897461,,-0.127890475587,-0.0440383780025,-0.0727066829305,0.988138849441
1649362089155563116,,38392,,1649362089,154796755,"""atracsys""",,,0.191483047485,-0.00424632263184,1.4027019043,,-0.127815478028,-0.044023121328,-0.0726829066923,0.988150982107
1649362089165661096,,38393,,1649362089,163852001,"""atracsys""",,,0.191483917236,-0.00424580526352,1.40268017578,,-0.127892504066,-0.0439973264628,-0.07267843426,0.988142493703
1649362089175638914,,38394,,1649362089,172698144,"""atracsys""",,,0.191480682373,-0.00425490760803,1.40269128418,,-0.128023809803,-0.0440965084045,-0.0726792374997,0.988121010052
1649362089185720920,,38395,,1649362089,184617771,"""atracsys""",,,0.191481796265,-0.00425279712677,1.40267993164,,-0.127835816912,-0.0439989577548,-0.0726921573346,0.988148746846
1649362089195794105,,38396,,1649362089,193588716,"""atracsys""",,,0.191483078003,-0.00424702978134,1.40267590332,,-0.127782302258,-0.0439491642413,-0.0726753792229,0.988159118486
1649362089205881118,,38397,,1649362089,205516048,"""atracsys""",,,0.191480377197,-0.00424345397949,1.40267883301,,-0.127883171172,-0.0441339695155,-0.0726881320936,0.988136894726
1649362089215964078,,38398,,1649362089,214537063,"""atracsys""",,,0.191478683472,-0.00424383449554,1.40267749023,,-0.127860202309,-0.0440693702656,-0.0726625604988,0.988144630898
1649362089225970029,,38399,,1649362089,223418616,"""atracsys""",,,0.191480789185,-0.00423554706573,1.40266870117,,-0.12795918376,-0.0440902414459,-0.0726908675878,0.988128805202
1649362089236098051,,38400,,1649362089,235360707,"""atracsys""",,,0.191480056763,-0.00424563789368,1.40266479492,,-0.128059021363,-0.0443839377988,-0.0726694735821,0.98810429648
1649362089246109962,,38401,,1649362089,244386023,"""atracsys""",,,0.191478302002,-0.00425169706345,1.40266064453,,-0.127791779442,-0.0442330110481,-0.0726734579041,0.988145369041
1649362089256206989,,38402,,1649362089,253341513,"""atracsys""",,,0.191478408813,-0.0042555513382,1.40267126465,,-0.127852301604,-0.0443967397169,-0.0726521658097,0.988131763117
1649362089266274929,,38403,,1649362089,265225974,"""atracsys""",,,0.191478149414,-0.00424978113174,1.40267541504,,-0.127867369333,-0.0441918000012,-0.0726671723979,0.988137896616
1649362089276261091,,38404,,1649362089,274193381,"""atracsys""",,,0.19147605896,-0.00424604892731,1.40266467285,,-0.128038378109,-0.0442105523021,-0.0726680646233,0.988114848173
1649362089286386013,,38405,,1649362089,286121923,"""atracsys""",,,0.191476257324,-0.00423880434036,1.40265515137,,-0.128018136427,-0.0443188202551,-0.0726699118829,0.988112484904
1649362089296370983,,38406,,1649362089,295055371,"""atracsys""",,,0.191478286743,-0.0042334113121,1.40266174316,,-0.127941145481,-0.0443012596868,-0.0726568803891,0.988124202424
1649362089306452989,,38407,,1649362089,304042319,"""atracsys""",,,0.191474777222,-0.00424505376816,1.40266687012,,-0.127917239392,-0.0443602629818,-0.0726576743557,0.988124591988
1649362089316546916,,38408,,1649362089,315989526,"""atracsys""",,,0.191471405029,-0.00425141906738,1.40266223145,,-0.128072541361,-0.044514033829,-0.0726661128424,0.988096939063
1649362089326617956,,38409,,1649362089,324911982,"""atracsys""",,,0.191476745605,-0.00425347471237,1.40266345215,,-0.127986280403,-0.044437977129,-0.0726650095117,0.988111620522
1649362089336679935,,38410,,1649362089,333883759,"""atracsys""",,,0.191477767944,-0.00425934267044,1.40265551758,,-0.12804458721,-0.0443698234627,-0.0726724686567,0.988106580664
1649362089346751928,,38411,,1649362089,346007897,"""atracsys""",,,0.191476379395,-0.00426380729675,1.40266467285,,-0.127932448418,-0.0443289587363,-0.0726822555658,0.988122220064
1649362089356827020,,38412,,1649362089,354791219,"""atracsys""",,,0.191477706909,-0.00425027894974,1.40266650391,,-0.127797249561,-0.0443519575036,-0.0726525214211,0.988140869513
1649362089366869926,,38413,,1649362089,363831096,"""atracsys""",,,0.191477416992,-0.00423933696747,1.40267785645,,-0.127979928446,-0.0442938723311,-0.0726549599631,0.988119652462
1649362089376902103,,38414,,1649362089,375663066,"""atracsys""",,,0.191476669312,-0.00424440526962,1.40267614746,,-0.128052031313,-0.0441717566501,-0.0726959277615,0.988112764455
1649362089386970996,,38415,,1649362089,384679913,"""atracsys""",,,0.191477783203,-0.00425241661072,1.40267993164,,-0.127977161497,-0.044223126471,-0.0726722620629,0.98812190723
1649362089397064924,,38416,,1649362089,396578599,"""atracsys""",,,0.191478485107,-0.00425531005859,1.40268041992,,-0.127835161921,-0.0443035398415,-0.072690242745,0.988135363371
1649362089407102108,,38417,,1649362089,405583354,"""atracsys""",,,0.191475296021,-0.00426645231247,1.40268505859,,-0.127873250011,-0.0443373430664,-0.0726674949466,0.988130592138
1649362089417171001,,38418,,1649362089,414502505,"""atracsys""",,,0.191475265503,-0.00426911067963,1.40269018555,,-0.12784601613,-0.0442796707284,-0.0726503878738,0.988137960035
1649362089427229881,,38419,,1649362089,426441612,"""atracsys""",,,0.191478820801,-0.00425110816956,1.40268408203,,-0.127881621463,-0.0443207707881,-0.0726592446496,0.988130858913
1649362089437251091,,38420,,1649362089,435374593,"""atracsys""",,,0.191476959229,-0.00424889326096,1.40269128418,,-0.127931749938,-0.0443702599623,-0.0726617952374,0.988121961552
1649362089447397947,,38421,,1649362089,444320388,"""atracsys""",,,0.191474853516,-0.00424939680099,1.40269287109,,-0.127750951859,-0.0444170342949,-0.0726600287585,0.988143381086
1649362089457423925,,38422,,1649362089,456266101,"""atracsys""",,,0.191477966309,-0.0042444562912,1.40269714355,,-0.127760584278,-0.0443571440138,-0.0726684038642,0.988144210103
1649362089467449903,,38423,,1649362089,465231097,"""atracsys""",,,0.19147795105,-0.00424256896973,1.40269165039,,-0.12797730538,-0.0443721464467,-0.0726612978746,0.988116014301
1649362089477534055,,38424,,1649362089,477189211,"""atracsys""",,,0.191476165771,-0.00425825834274,1.40269482422,,-0.127897359052,-0.0442088657855,-0.0726829611349,0.988132090813
1649362089487577915,,38425,,1649362089,486100855,"""atracsys""",,,0.191477630615,-0.00425993776321,1.40269824219,,-0.127921105409,-0.0442142016024,-0.0726673887972,0.988129923529
1649362089497704029,,38426,,1649362089,495090497,"""atracsys""",,,0.191480056763,-0.00426142644882,1.40270068359,,-0.127841455241,-0.0443974282769,-0.0726653007817,0.988132169675
1649362089507678031,,38427,,1649362089,507005529,"""atracsys""",,,0.191477157593,-0.00425958251953,1.40270007324,,-0.127978443358,-0.0442057386041,-0.0726835495862,0.988121689029
1649362089517745018,,38428,,1649362089,516002957,"""atracsys""",,,0.191477279663,-0.00424857759476,1.40270007324,,-0.127925586365,-0.0442998022138,-0.0726624074731,0.988125875796
1649362089527808904,,38429,,1649362089,524915085,"""atracsys""",,,0.191479507446,-0.00423890352249,1.40270861816,,-0.128036449889,-0.0443895278445,-0.0726717403395,0.988106803677
1649362089537873029,,38430,,1649362089,536864645,"""atracsys""",,,0.191478302002,-0.00424167394638,1.40270349121,,-0.128003901181,-0.0443209662523,-0.0726831704888,0.988113257658
1649362089547938108,,38431,,1649362089,545843909,"""atracsys""",,,0.191477172852,-0.00425262451172,1.40269775391,,-0.127988149256,-0.0444890701582,-0.0726412228378,0.988110828314
1649362089557981967,,38432,,1649362089,557773181,"""atracsys""",,,0.191479049683,-0.00425554513931,1.40269433594,,-0.128222096262,-0.0443576375575,-0.0726470342371,0.988085979274
1649362089568048000,,38433,,1649362089,566709961,"""atracsys""",,,0.191479278564,-0.00425860023499,1.4026895752,,-0.127934555401,-0.0444478195719,-0.0726629894295,0.98811802475
1649362089578078031,,38434,,1649362089,575661420,"""atracsys""",,,0.191475616455,-0.00426346683502,1.40269604492,,-0.127926281065,-0.0443344722117,-0.0726565224387,0.98812466366
1649362089588205099,,38435,,1649362089,587609089,"""atracsys""",,,0.191477279663,-0.00425402641296,1.40269116211,,-0.127981830613,-0.044418877,-0.0726574136276,0.988113614239
1649362089598212003,,38436,,1649362089,596645569,"""atracsys""",,,0.191479431152,-0.00424437618256,1.40268469238,,-0.127896668425,-0.0445462704319,-0.0726423337667,0.988120014645
1649362089608238935,,38437,,1649362089,605586857,"""atracsys""",,,0.191474472046,-0.00424649238586,1.40268530273,,-0.127932757517,-0.0442326843147,-0.0726659507985,0.988127693563
1649362089618314981,,38438,,1649362089,617458342,"""atracsys""",,,0.191475753784,-0.00424737453461,1.40269116211,,-0.127975363104,-0.0444258080983,-0.0726432819499,0.988115179319
1649362089628320932,,38439,,1649362089,626418576,"""atracsys""",,,0.191477874756,-0.00424739027023,1.40268884277,,-0.127832581069,-0.0444033972809,-0.0726648915501,0.988133079632
1649362089638484954,,38440,,1649362089,635417171,"""atracsys""",,,0.191475967407,-0.00425569677353,1.40269812012,,-0.127909573632,-0.0443607224489,-0.0726852609222,0.988123534849
1649362089648494958,,38441,,1649362089,647437709,"""atracsys""",,,0.19147253418,-0.00426306438446,1.40268701172,,-0.127967649996,-0.0441929242964,-0.0726669144796,0.988124883573
1649362089658556938,,38442,,1649362089,656260041,"""atracsys""",,,0.191475067139,-0.00425388288498,1.40268530273,,-0.127865266141,-0.0444254248541,-0.072661630517,0.988128100396
1649362089668584108,,38443,,1649362089,668201540,"""atracsys""",,,0.19147492981,-0.00424955892563,1.40269335937,,-0.127884334761,-0.0441983390891,-0.0726862209462,0.988134007627
1649362089678657054,,38444,,1649362089,677160764,"""atracsys""",,,0.191472412109,-0.00425043058395,1.40269226074,,-0.127787994452,-0.0443688208445,-0.0726637840231,0.988140481259
1649362089688781023,,38445,,1649362089,686115264,"""atracsys""",,,0.191473937988,-0.00424681377411,1.40268469238,,-0.127792688052,-0.0444062700106,-0.0726689877849,0.988137809356
1649362089698822021,,38446,,1649362089,698092832,"""atracsys""",,,0.191473937988,-0.00424448108673,1.40268579102,,-0.127742939802,-0.0442778219998,-0.0726786878662,0.988149292435
1649362089708887100,,38447,,1649362089,707011036,"""atracsys""",,,0.19147114563,-0.00424907779694,1.40268200684,,-0.127823402378,-0.0443334475811,-0.0726519992729,0.988138355814
1649362089718905925,,38448,,1649362089,716028801,"""atracsys""",,,0.191472396851,-0.00425301408768,1.40267590332,,-0.12793397303,-0.0445835750234,-0.0726480382759,0.988113083568
1649362089728925943,,38449,,1649362089,727944675,"""atracsys""",,,0.191474884033,-0.0042474899292,1.40267871094,,-0.12796022328,-0.04448538656,-0.0726561587107,0.988113512832
1649362089739046096,,38450,,1649362089,736848789,"""atracsys""",,,0.191470794678,-0.00425290679932,1.40268286133,,-0.127930385011,-0.0444931683057,-0.0726641398269,0.988116439165
1649362089749114990,,38451,,1649362089,748833236,"""atracsys""",,,0.191470870972,-0.00425635814667,1.40269128418,,-0.127892665861,-0.0446543923874,-0.0726545203429,0.98811475646
1649362089759185075,,38452,,1649362089,757762397,"""atracsys""",,,0.191475997925,-0.00424737787247,1.4026920166,,-0.127952588446,-0.0446948472591,-0.0726412915972,0.988106142321
1649362089769218921,,38453,,1649362089,766783898,"""atracsys""",,,0.191475463867,-0.00424214076996,1.40270483398,,-0.128010671934,-0.0447071046185,-0.0726375523747,0.988098339566
1649362089779294013,,38454,,1649362089,778652600,"""atracsys""",,,0.191474441528,-0.00424607276917,1.40270678711,,-0.128127725573,-0.0448193496749,-0.072629929022,0.988078643249
1649362089789354085,,38455,,1649362089,787626214,"""atracsys""",,,0.191477905273,-0.00424488210678,1.40271313477,,-0.128057651911,-0.0447400851946,-0.0726362395041,0.988090855779
1649362089799442052,,38456,,1649362089,796583655,"""atracsys""",,,0.191480255127,-0.00425148916245,1.40271936035,,-0.128106899654,-0.0445835685028,-0.0726482310887,0.98809066497
1649362089809411048,,38457,,1649362089,808507562,"""atracsys""",,,0.191478530884,-0.00426125097275,1.40272961426,,-0.127983025297,-0.0445506882668,-0.0726401961379,0.988108791235
1649362089819526910,,38458,,1649362089,817516867,"""atracsys""",,,0.191480041504,-0.0042592382431,1.40273718262,,-0.128009536769,-0.0445748113823,-0.0726453134612,0.988103892877
1649362089829639911,,38459,,1649362089,826416899,"""atracsys""",,,0.19148298645,-0.00425125598907,1.40274047852,,-0.127999260199,-0.0443954822888,-0.0726548006699,0.988112600102
1649362089839586019,,38460,,1649362089,838399027,"""atracsys""",,,0.191481918335,-0.00424645185471,1.40274560547,,-0.12807847371,-0.0443773076962,-0.0726662363306,0.988102311115
1649362089849642992,,38461,,1649362089,847350050,"""atracsys""",,,0.191479873657,-0.00424953174591,1.40273925781,,-0.127976589989,-0.0441989358724,-0.072673131644,0.988122999641
1649362089859684944,,38462,,1649362089,859265109,"""atracsys""",,,0.19148274231,-0.00424647045135,1.40273681641,,-0.127854300835,-0.0441738790919,-0.0726825487722,0.988139258034
1649362089869728088,,38463,,1649362089,868212699,"""atracsys""",,,0.191480422974,-0.00425025892258,1.40274645996,,-0.127831247282,-0.0443294924636,-0.0726784795861,0.988135571124
1649362089880069017,,38464,,1649362089,877181772,"""atracsys""",,,0.191480300903,-0.00425974416733,1.40272949219,,-0.127858976887,-0.044189567354,-0.0726992690723,0.988136721533
1649362089890132904,,38465,,1649362089,889134374,"""atracsys""",,,0.191483383179,-0.00425458908081,1.40273742676,,-0.127980325213,-0.0444258623929,-0.0726635822153,0.988113041574
1649362089900197029,,38466,,1649362089,898089606,"""atracsys""",,,0.191482528687,-0.004247194767,1.4027388916,,-0.12783976216,-0.0441948611962,-0.0726742911002,0.988140808219
1649362089910243988,,38467,,1649362089,910050157,"""atracsys""",,,0.191480499268,-0.00424907016754,1.40272729492,,-0.127929966398,-0.0440834682207,-0.072683203726,0.988133454258
1649362089920335054,,38468,,1649362089,918973443,"""atracsys""",,,0.191478469849,-0.00424856472015,1.40272814941,,-0.127936554927,-0.0442793404375,-0.0726841159339,0.988123776262
1649362089930407047,,38469,,1649362089,927916656,"""atracsys""",,,0.191480484009,-0.00424115467072,1.40271899414,,-0.127816410393,-0.0441901340107,-0.0726587989348,0.988145179732
1649362089940455913,,38470,,1649362089,939857694,"""atracsys""",,,0.191475204468,-0.00424847841263,1.40272460938,,-0.127953448465,-0.0442905886729,-0.0726498701339,0.988123603174
1649362089950458049,,38471,,1649362089,948841852,"""atracsys""",,,0.191476074219,-0.00425052452087,1.40271020508,,-0.127900136742,-0.0442533946151,-0.0726821044676,0.988129801077
1649362089960544109,,38472,,1649362089,957800959,"""atracsys""",,,0.191478775024,-0.00424976587296,1.40269628906,,-0.127936717214,-0.0441150126286,-0.0726844379959,0.98813108165
1649362089970611095,,38473,,1649362089,969731593,"""atracsys""",,,0.191475067139,-0.00424937963486,1.40270166016,,-0.127858958571,-0.0442332714377,-0.0726724570291,0.98813674074
1649362089980670928,,38474,,1649362089,978689129,"""atracsys""",,,0.19147303772,-0.00425215625763,1.40270898438,,-0.127830035924,-0.0442280886416,-0.0726749628066,0.988140530427
1649362089990737915,,38475,,1649362089,987618557,"""atracsys""",,,0.191475341797,-0.00425050067902,1.40270446777,,-0.127886064713,-0.0441950295039,-0.0726690982331,0.988135191146
1649362090000812053,,38476,,1649362089,999573137,"""atracsys""",,,0.191475418091,-0.0042480006218,1.4026953125,,-0.127860350845,-0.0440870587687,-0.0726790294836,0.988142611471
1649362090010901927,,38477,,1649362090,8522569,"""atracsys""",,,0.191472549438,-0.00425021934509,1.40269909668,,-0.128035873785,-0.0441400811113,-0.0726847742294,0.988117094204
1649362090020941019,,38478,,1649362090,20482806,"""atracsys""",,,0.19147416687,-0.00424664545059,1.40268896484,,-0.127946383926,-0.0441430280791,-0.0726860974896,0.988128456803
1649362090031085968,,38479,,1649362090,29475228,"""atracsys""",,,0.191475112915,-0.00424200534821,1.40268908691,,-0.127909937965,-0.0443740961332,-0.0726555650885,0.988125071144
1649362090041048049,,38480,,1649362090,38387366,"""atracsys""",,,0.191473495483,-0.00424976634979,1.40269714355,,-0.127989067485,-0.0441025415874,-0.0726796637675,0.988125210135
1649362090051172971,,38481,,1649362090,50308537,"""atracsys""",,,0.191472473145,-0.00425182151794,1.40267932129,,-0.128065777874,-0.0441897313688,-0.0726707031085,0.988112034685
1649362090061222076,,38482,,1649362090,59309261,"""atracsys""",,,0.191475234985,-0.00424829292297,1.40268981934,,-0.128175243312,-0.0442198092477,-0.0726839781973,0.98809551906
1649362090071391105,,38483,,1649362090,68220235,"""atracsys""",,,0.191475021362,-0.00425112533569,1.40268994141,,-0.127942024925,-0.0442992229092,-0.0726666650316,0.988123460354
1649362090081360101,,38484,,1649362090,80259873,"""atracsys""",,,0.191473678589,-0.00425321865082,1.40267749023,,-0.12795557482,-0.044176612029,-0.072670627467,0.988126903654
1649362090091383934,,38485,,1649362090,89110079,"""atracsys""",,,0.19147479248,-0.00425019073486,1.40268371582,,-0.127948529032,-0.0442137311429,-0.0726791242756,0.988125530887
1649362090101486921,,38486,,1649362090,101104639,"""atracsys""",,,0.191474594116,-0.00425084924698,1.4026796875,,-0.127910338362,-0.0443705721972,-0.0726681948759,0.988124248825
1649362090111484050,,38487,,1649362090,110030660,"""atracsys""",,,0.191472122192,-0.00425521183014,1.40267822266,,-0.12770534841,-0.0443859782423,-0.0726693524989,0.988149985645
1649362090121581077,,38488,,1649362090,118963964,"""atracsys""",,,0.191472305298,-0.00425256347656,1.40267272949,,-0.127797396212,-0.0441457189653,-0.0726961054847,0.988146880411
1649362090131637096,,38489,,1649362090,130933592,"""atracsys""",,,0.191474212646,-0.00425063323975,1.40266308594,,-0.127957254496,-0.0441258447997,-0.0726838178123,0.988127984358
1649362090141817092,,38490,,1649362090,139868345,"""atracsys""",,,0.19147277832,-0.00425595140457,1.40266564941,,-0.127884389058,-0.0443639531892,-0.072664118421,0.98812820453
1649362090151870012,,38491,,1649362090,148845179,"""atracsys""",,,0.19146987915,-0.00425718021393,1.40267016602,,-0.127839342125,-0.0442269318588,-0.0726748174666,0.988139388958
1649362090161864995,,38492,,1649362090,160795050,"""atracsys""",,,0.191473495483,-0.00424667882919,1.40266662598,,-0.127955796773,-0.0440956593003,-0.0726773446485,0.98812999675
1649362090171890974,,38493,,1649362090,169717562,"""atracsys""",,,0.191471359253,-0.00424449539185,1.40266650391,,-0.1278736218,-0.0442563463679,-0.0726587687861,0.988134816699
1649362090181993007,,38494,,1649362090,181682637,"""atracsys""",,,0.191469467163,-0.00424812698364,1.40265917969,,-0.127972268189,-0.0443543712323,-0.0726531929532,0.9881180607
1649362090192030906,,38495,,1649362090,190626153,"""atracsys""",,,0.19147265625,-0.00424490594864,1.40265405273,,-0.127960265628,-0.0443531905815,-0.0726565993133,0.988119417622
1649362090202104091,,38496,,1649362090,199608692,"""atracsys""",,,0.191472671509,-0.00424687576294,1.40265197754,,-0.127962042403,-0.0443948613113,-0.0726595928276,0.988117096079
1649362090212121009,,38497,,1649362090,211522505,"""atracsys""",,,0.191470306396,-0.00425707435608,1.40265649414,,-0.128007975426,-0.0441616376326,-0.0726897175177,0.988119381935
1649362090222203969,,38498,,1649362090,220458006,"""atracsys""",,,0.191471130371,-0.00425331115723,1.40264770508,,-0.128034044488,-0.0443378774232,-0.0726598317196,0.988110310103
1649362090232367992,,38499,,1649362090,229461185,"""atracsys""",,,0.191472000122,-0.00424741172791,1.40265979004,,-0.127983445976,-0.0441336348317,-0.0726632759237,0.988125755238
1649362090242331027,,38500,,1649362090,241408603,"""atracsys""",,,0.191472412109,-0.00424760293961,1.40265905762,,-0.12798246474,-0.0442709450715,-0.0726869122467,0.988118001521
1649362090252451896,,38501,,1649362090,250330835,"""atracsys""",,,0.191472503662,-0.00424091482162,1.40265966797,,-0.128079037126,-0.0443473467599,-0.0726667506591,0.9881035454
1649362090262589931,,38502,,1649362090,259266711,"""atracsys""",,,0.191473678589,-0.0042362651825,1.4026640625,,-0.128013688392,-0.0443603915851,-0.072652513229,0.988112475159
1649362090272546052,,38503,,1649362090,271209054,"""atracsys""",,,0.191470901489,-0.00424140453339,1.40267016602,,-0.127964998498,-0.0443391795998,-0.0726672911807,0.988118647281
1649362090282605886,,38504,,1649362090,280230800,"""atracsys""",,,0.191472137451,-0.00425135803223,1.40267224121,,-0.127969091122,-0.0443884591348,-0.0726793280748,0.988115019461
1649362090292634010,,38505,,1649362090,292157894,"""atracsys""",,,0.191474029541,-0.00424982357025,1.4026829834,,-0.127857752732,-0.0443440464658,-0.0726599167053,0.98813285398
1649362090302735090,,38506,,1649362090,301051903,"""atracsys""",,,0.191473937988,-0.00424730873108,1.40267822266,,-0.128075812537,-0.0444259357157,-0.0726692613739,0.988100248421
1649362090312818050,,38507,,1649362090,310021264,"""atracsys""",,,0.191472366333,-0.00425044822693,1.40267956543,,-0.127939393759,-0.0442100229564,-0.0726796459484,0.988126841281
1649362090322788953,,38508,,1649362090,321994933,"""atracsys""",,,0.191475463867,-0.0042410364151,1.4026739502,,-0.127945090796,-0.0444469868858,-0.0726724012955,0.988116005937
1649362090332901954,,38509,,1649362090,330968296,"""atracsys""",,,0.191477401733,-0.00423965740204,1.40268273926,,-0.127979654065,-0.0444038545684,-0.072665242014,0.988113995675
1649362090342926979,,38510,,1649362090,339871115,"""atracsys""",,,0.191474334717,-0.00424268627167,1.40267443848,,-0.127936256126,-0.0443193717343,-0.0726890559645,0.988121656883
1649362090353039979,,38511,,1649362090,351806206,"""atracsys""",,,0.191473953247,-0.00424292564392,1.4026817627,,-0.127879779014,-0.044357850712,-0.0726495134298,0.988130149018
1649362090363143920,,38512,,1649362090,360769123,"""atracsys""",,,0.191477844238,-0.00424055767059,1.40267614746,,-0.12801352801,-0.0442462657662,-0.0726721749587,0.988116167057
1649362090373095035,,38513,,1649362090,372763570,"""atracsys""",,,0.191473556519,-0.0042467713356,1.40268701172,,-0.127827762554,-0.0442555855532,-0.0726603265984,0.988140669746
1649362090383225917,,38514,,1649362090,381674302,"""atracsys""",,,0.191471633911,-0.00425187063217,1.40267578125,,-0.12800395569,-0.0442498849207,-0.0726806610897,0.988116620909
1649362090393294095,,38515,,1649362090,390631938,"""atracsys""",,,0.191474563599,-0.00424620771408,1.40267578125,,-0.127984592228,-0.0442508612781,-0.072676765004,0.988119371967
1649362090403413057,,38516,,1649362090,402562850,"""atracsys""",,,0.191471954346,-0.00424799156189,1.402671875,,-0.12793693755,-0.0444474369397,-0.0726650554571,0.988117581604
1649362090413470029,,38517,,1649362090,411503695,"""atracsys""",,,0.191469589233,-0.00424926042557,1.40268347168,,-0.127734764842,-0.044315986797,-0.0726653235558,0.98814962122
1649362090423470020,,38518,,1649362090,420503499,"""atracsys""",,,0.191472564697,-0.00424666404724,1.40266992188,,-0.127859718935,-0.0443940213671,-0.0726686447662,0.988129713757
1649362090433541059,,38519,,1649362090,432439331,"""atracsys""",,,0.191473403931,-0.00424550819397,1.40267883301,,-0.127748726898,-0.0444387695318,-0.0726613416816,0.988142594955
1649362090443598031,,38520,,1649362090,441405996,"""atracsys""",,,0.191472122192,-0.00425024938583,1.40267553711,,-0.127842615641,-0.0445157519192,-0.0726498193589,0.988127834445
1649362090453658103,,38521,,1649362090,453354767,"""atracsys""",,,0.191471817017,-0.00424842023849,1.4026739502,,-0.127808170896,-0.0443684593702,-0.0726668304101,0.988137664004
1649362090463797092,,38522,,1649362090,462273712,"""atracsys""",,,0.19147303772,-0.00424924755096,1.40268151855,,-0.127843445908,-0.044388694399,-0.0726766849872,0.988131467269
1649362090473691940,,38523,,1649362090,471216658,"""atracsys""",,,0.191473098755,-0.0042505273819,1.40268212891,,-0.127730362235,-0.0445785414527,-0.0726486798889,0.988139604264
1649362090483834981,,38524,,1649362090,483188033,"""atracsys""",,,0.191472290039,-0.00425380754471,1.40268054199,,-0.127947092802,-0.0446499963643,-0.0726537345696,0.988107966834
1649362090493841886,,38525,,1649362090,492119178,"""atracsys""",,,0.191473464966,-0.00424375391006,1.40268737793,,-0.127750354708,-0.044452959662,-0.0726511573532,0.988142495081
1649362090503886938,,38526,,1649362090,501068594,"""atracsys""",,,0.191474182129,-0.00424394655228,1.40267980957,,-0.127936689577,-0.0442663493437,-0.0726574691095,0.988126300611
1649362090513969898,,38527,,1649362090,513052648,"""atracsys""",,,0.191470993042,-0.00425668621063,1.40269494629,,-0.128069834195,-0.044294662753,-0.0726780522384,0.988106270167
1649362090523999929,,38528,,1649362090,521957342,"""atracsys""",,,0.191474884033,-0.00425294303894,1.40269482422,,-0.127979936908,-0.0443771472961,-0.0726474311593,0.988116468486
1649362090534104108,,38529,,1649362090,530946236,"""atracsys""",,,0.19147428894,-0.00425196695328,1.40269616699,,-0.127958182345,-0.0443343805407,-0.0726537005667,0.98812074468
1649362090544137954,,38530,,1649362090,542854125,"""atracsys""",,,0.191471328735,-0.00425652885437,1.40269555664,,-0.12793829853,-0.0442806872761,-0.0726774742105,0.988123978682
1649362090554243087,,38531,,1649362090,551819724,"""atracsys""",,,0.191473266602,-0.00425509357452,1.40268835449,,-0.127982353658,-0.0441588480615,-0.0726723297782,0.98812410444
1649362090564311027,,38532,,1649362090,563815923,"""atracsys""",,,0.191474212646,-0.00424304246902,1.40270056152,,-0.127969206325,-0.0441461117105,-0.0726742049094,0.98812623839
1649362090574296951,,38533,,1649362090,572710174,"""atracsys""",,,0.191471282959,-0.00424813556671,1.40269519043,,-0.127973974457,-0.0441937141352,-0.0726712350672,0.988123711428
1649362090584449052,,38534,,1649362090,581687104,"""atracsys""",,,0.191471511841,-0.00425180625916,1.40269287109,,-0.128074005275,-0.0443271943563,-0.0726711571818,0.988104777808
1649362090594465017,,38535,,1649362090,593649765,"""atracsys""",,,0.191474975586,-0.00424879217148,1.40268505859,,-0.128156384882,-0.04427806793,-0.0726881558144,0.988095048929
1649362090604545116,,38536,,1649362090,602612854,"""atracsys""",,,0.191473693848,-0.00424996471405,1.40268725586,,-0.127901145652,-0.0442094187896,-0.0726989656449,0.988130398594
1649362090614573001,,38537,,1649362090,611548602,"""atracsys""",,,0.191468521118,-0.00425642299652,1.4026784668,,-0.127852199057,-0.0441811448779,-0.0726743826223,0.988139805768
1649362090624675035,,38538,,1649362090,623469888,"""atracsys""",,,0.191470901489,-0.0042526679039,1.4026763916,,-0.127755343199,-0.04438572311,-0.0726579272079,0.988144374817
1649362090634780883,,38539,,1649362090,632420007,"""atracsys""",,,0.191471832275,-0.00424954748154,1.40266320801,,-0.12784252941,-0.0441876343595,-0.0726865556796,0.988139871307
1649362090644840955,,38540,,1649362090,644383358,"""atracsys""",,,0.191468032837,-0.0042482085228,1.40265942383,,-0.12788382521,-0.0445339701434,-0.0726706183164,0.988120151594
1649362090654865980,,38541,,1649362090,653346583,"""atracsys""",,,0.191468200684,-0.00424194192886,1.40265686035,,-0.12792190491,-0.044500920025,-0.0726621123323,0.988117337057
1649362090664921045,,38542,,1649362090,662284526,"""atracsys""",,,0.191469558716,-0.00423606014252,1.40266088867,,-0.127946376688,-0.0444331260072,-0.0726436998716,0.988118573287
1649362090674952983,,38543,,1649362090,674210876,"""atracsys""",,,0.191469863892,-0.00424566316605,1.40265783691,,-0.127990698026,-0.0445022733732,-0.0726533106523,0.988109014904
1649362090685029029,,38544,,1649362090,683201054,"""atracsys""",,,0.191466598511,-0.0042506480217,1.40265429687,,-0.127954878096,-0.0442513382751,-0.0726511827188,0.988125080079
1649362090695080995,,38545,,1649362090,692153114,"""atracsys""",,,0.191471084595,-0.00424724721909,1.40266455078,,-0.128014875158,-0.0444843498407,-0.0726436918674,0.988107397194
1649362090705193996,,38546,,1649362090,704103379,"""atracsys""",,,0.191469909668,-0.0042536854744,1.40266381836,,-0.12799225329,-0.0444074792513,-0.0726640824327,0.988112286134
1649362090715240001,,38547,,1649362090,713079238,"""atracsys""",,,0.191469589233,-0.00425406599045,1.40266320801,,-0.127894891628,-0.044336538037,-0.0726694685319,0.988127682252
1649362090725277900,,38548,,1649362090,724973146,"""atracsys""",,,0.191474456787,-0.00424440145493,1.40266723633,,-0.127932652924,-0.0444480890214,-0.0726524042977,0.988119037286
1649362090735367059,,38549,,1649362090,733936316,"""atracsys""",,,0.191471954346,-0.00424111938477,1.40266516113,,-0.127781213882,-0.0443402937015,-0.0726776465746,0.988141619112
1649362090745568037,,38550,,1649362090,742881931,"""atracsys""",,,0.19147088623,-0.00424929237366,1.40266491699,,-0.12790486084,-0.0443792889078,-0.0726788496337,0.988123782785
1649362090755561113,,38551,,1649362090,754819734,"""atracsys""",,,0.191471801758,-0.00425189447403,1.40266015625,,-0.127787472595,-0.0441985993811,-0.0726649712455,0.988148089921
1649362090765590906,,38552,,1649362090,763838547,"""atracsys""",,,0.191474639893,-0.00425108718872,1.40266674805,,-0.127880230297,-0.0444678397018,-0.072652624069,0.988124918291
1649362090775717973,,38553,,1649362090,772749122,"""atracsys""",,,0.191472198486,-0.00425602817535,1.40267651367,,-0.127844925755,-0.0444751107886,-0.0726548038468,0.988128999148
1649362090785851955,,38554,,1649362090,784667411,"""atracsys""",,,0.191473358154,-0.00425358581543,1.40266516113,,-0.128096926145,-0.0443014299888,-0.0726519623034,0.98810437363
1649362090795994043,,38555,,1649362090,793642379,"""atracsys""",,,0.191474700928,-0.00424602127075,1.40267321777,,-0.127890247743,-0.0442865478382,-0.0726602031733,0.988131206413
1649362090805892944,,38556,,1649362090,805576720,"""atracsys""",,,0.191470275879,-0.00424432945251,1.40267480469,,-0.127817489849,-0.0443028299323,-0.0726831081384,0.988138206093
1649362090816037893,,38557,,1649362090,814566090,"""atracsys""",,,0.191473556519,-0.00425312805176,1.40267016602,,-0.127988529067,-0.0443423916136,-0.0726645696773,0.988115655704
1649362090826016902,,38558,,1649362090,823463491,"""atracsys""",,,0.191473754883,-0.00424827861786,1.40267211914,,-0.12790048243,-0.0441857371805,-0.0726583788282,0.988134528903
1649362090836122989,,38559,,1649362090,835425480,"""atracsys""",,,0.191473068237,-0.00425049066544,1.40266308594,,-0.127904111665,-0.0442090741009,-0.072656024459,0.98813318844
1649362090846235990,,38560,,1649362090,844412773,"""atracsys""",,,0.19147064209,-0.00425499677658,1.40267114258,,-0.127898505957,-0.044206609639,-0.0726656463566,0.988133316753
1649362090856256008,,38561,,1649362090,853389329,"""atracsys""",,,0.191471359253,-0.00425310516357,1.40267077637,,-0.127954483558,-0.0441357824724,-0.0726864895995,0.988127702816
1649362090866347074,,38562,,1649362090,865283250,"""atracsys""",,,0.191473739624,-0.00425010967255,1.40267053223,,-0.127895791583,-0.0439919866702,-0.072685654628,0.988141774856
1649362090876346111,,38563,,1649362090,874239930,"""atracsys""",,,0.191469451904,-0.00425478744507,1.40267724609,,-0.127960586628,-0.0442894281163,-0.0726857060321,0.988120095416
1649362090886439085,,38564,,1649362090,886201397,"""atracsys""",,,0.191470550537,-0.00425021934509,1.40266943359,,-0.127813904871,-0.0443662788598,-0.0726668095839,0.988137021777
1649362090896557092,,38565,,1649362090,895113195,"""atracsys""",,,0.191473495483,-0.00424688863754,1.40266821289,,-0.127972483701,-0.0443645730745,-0.07265970702,0.988117095818
1649362090906558036,,38566,,1649362090,904080079,"""atracsys""",,,0.191471969604,-0.00424972724915,1.4026730957,,-0.127844346297,-0.0443208967501,-0.0726844754592,0.988133821027
1649362090916582107,,38567,,1649362090,916003232,"""atracsys""",,,0.191470336914,-0.00425396203995,1.40268066406,,-0.127902794967,-0.0444261717196,-0.0726784848757,0.988121970276
1649362090926631927,,38568,,1649362090,924972023,"""atracsys""",,,0.191471176147,-0.00425203800201,1.40267370605,,-0.127787484537,-0.0442423882737,-0.0726677541485,0.988145924134
1649362090936723947,,38569,,1649362090,933922522,"""atracsys""",,,0.191470474243,-0.00425134706497,1.40268164063,,-0.127899888214,-0.0445059221176,-0.0726632948843,0.988119874847
1649362090946806907,,38570,,1649362090,945885660,"""atracsys""",,,0.191470489502,-0.00425483465195,1.40267346191,,-0.127839608839,-0.0445110053391,-0.0726756753702,0.988126535938
1649362090956835985,,38571,,1649362090,954825551,"""atracsys""",,,0.191473052979,-0.0042474193573,1.40268676758,,-0.127870178448,-0.0444097662533,-0.0726649044257,0.988127927846
1649362090966948986,,38572,,1649362090,963809079,"""atracsys""",,,0.19147567749,-0.00424529695511,1.40268322754,,-0.127905412279,-0.0444597075664,-0.0726451846116,0.988122571883
1649362090976978063,,38573,,1649362090,975811593,"""atracsys""",,,0.191471954346,-0.00425683021545,1.40268859863,,-0.127885823406,-0.0445098190034,-0.0726636130262,0.988121496338
1649362090987050056,,38574,,1649362090,984667347,"""atracsys""",,,0.191472000122,-0.00425656509399,1.40269116211,,-0.127947385523,-0.0443363453546,-0.0726946136395,0.988119045544
1649362090997071981,,38575,,1649362090,996732495,"""atracsys""",,,0.191474822998,-0.00424729299545,1.40269042969,,-0.127910652083,-0.0443408750169,-0.0726658956973,0.988125710367
1649362091007097005,,38576,,1649362091,5595086,"""atracsys""",,,0.191475738525,-0.00425166940689,1.40270385742,,-0.127969790697,-0.0444323794608,-0.0726788813373,0.988112987736
1649362091017160892,,38577,,1649362091,14574445,"""atracsys""",,,0.19147567749,-0.00425377655029,1.4026986084,,-0.127879206606,-0.0442198638188,-0.0726561170325,0.988135922239
1649362091027200937,,38578,,1649362091,26463306,"""atracsys""",,,0.191475875854,-0.00425701475143,1.40271228027,,-0.127975408587,-0.0444327203317,-0.0726793729547,0.988112208663
1649362091037240982,,38579,,1649362091,35429945,"""atracsys""",,,0.19147454834,-0.0042624835968,1.40271569824,,-0.127828194761,-0.0444534403638,-0.0726351877718,0.98813358093
1649362091047382116,,38580,,1649362091,44382940,"""atracsys""",,,0.191473251343,-0.00426621389389,1.40270849609,,-0.127960214169,-0.0444025510764,-0.0726574569631,0.988117144369
1649362091057369947,,38581,,1649362091,56300651,"""atracsys""",,,0.19147555542,-0.00425013256073,1.40272070312,,-0.127969403774,-0.0442901227542,-0.0726545624124,0.98812121285
1649362091067414999,,38582,,1649362091,65272844,"""atracsys""",,,0.191475357056,-0.00423870849609,1.40271704102,,-0.127986346761,-0.0442662457505,-0.0726607291159,0.98811963495
1649362091077512025,,38583,,1649362091,77193710,"""atracsys""",,,0.191473358154,-0.00424430656433,1.40271923828,,-0.127930097642,-0.0444578131561,-0.0726568214951,0.988118605865
1649362091087557077,,38584,,1649362091,86197341,"""atracsys""",,,0.191474578857,-0.00425408315659,1.40272314453,,-0.12797536235,-0.0443327350989,-0.0726772314806,0.988116863157
1649362091097718000,,38585,,1649362091,95190613,"""atracsys""",,,0.191475112915,-0.00426200485229,1.40272753906,,-0.127896443521,-0.044316202112,-0.0726503841455,0.988129796964
1649362091107764005,,38586,,1649362091,107054145,"""atracsys""",,,0.191470809937,-0.00427159881592,1.40271936035,,-0.127962665565,-0.0443113143917,-0.0726466120242,0.988121719931
1649362091117774009,,38587,,1649362091,116001773,"""atracsys""",,,0.191470504761,-0.00426961231232,1.4027208252,,-0.127916814193,-0.0444314853723,-0.0726526642466,0.988121815432
1649362091127902984,,38588,,1649362091,125035461,"""atracsys""",,,0.191474060059,-0.00425046730042,1.40271972656,,-0.127860920643,-0.0442285221145,-0.0726591620635,0.988137677134
1649362091137901067,,38589,,1649362091,136927547,"""atracsys""",,,0.191474563599,-0.00423535203934,1.40271179199,,-0.12796585682,-0.0441905271332,-0.0726560644856,0.988126020856
1649362091147991895,,38590,,1649362091,146014777,"""atracsys""",,,0.19147203064,-0.00423637866974,1.40271264648,,-0.127905963867,-0.0443721737054,-0.0726673957029,0.98812480194
1649362091158067941,,38591,,1649362091,155162833,"""atracsys""",,,0.191472335815,-0.00424086952209,1.4027154541,,-0.127908256956,-0.044323454309,-0.0726691866566,0.988126559967
1649362091168107032,,38592,,1649362091,164510912,"""atracsys""",,,0.19147517395,-0.00425421953201,1.40271289062,,-0.127905013712,-0.0444880329538,-0.0726594787131,0.988120297608
1649362091178153038,,38593,,1649362091,177692635,"""atracsys""",,,0.191472763062,-0.00428247022629,1.40271289062,,-0.128079791877,-0.0444514780362,-0.0726862422456,0.988097334882
1649362091188184976,,38594,,1649362091,187207504,"""atracsys""",,,0.191475585937,-0.00428183841705,1.40271520996,,-0.127793916904,-0.0442228765714,-0.0726752367508,0.988145415388
1649362091198266983,,38595,,1649362091,196804165,"""atracsys""",,,0.191478683472,-0.00426993083954,1.40271154785,,-0.127955914294,-0.0443729785973,-0.0726696923872,0.988118129869
1649362091208318948,,38596,,1649362091,206312654,"""atracsys""",,,0.191479125977,-0.00425037622452,1.40271081543,,-0.127817893355,-0.0442945438058,-0.0726549326204,0.988140597432
1649362091218333959,,38597,,1649362091,215813701,"""atracsys""",,,0.191477035522,-0.00423773288727,1.40271435547,,-0.127904881135,-0.044177340192,-0.0726703029763,0.988133458122
1649362091228530883,,38598,,1649362091,225321653,"""atracsys""",,,0.191479019165,-0.00422778511047,1.40270898438,,-0.127878352108,-0.0441120794655,-0.0726836583616,0.98813882492
1649362091238441944,,38599,,1649362091,235412562,"""atracsys""",,,0.191479751587,-0.00423123645782,1.40271130371,,-0.127926957466,-0.0443726994944,-0.0726632879621,0.988122362704
1649362091248533964,,38600,,1649362091,246771362,"""atracsys""",,,0.19147958374,-0.00424913692474,1.40271191406,,-0.127868640793,-0.0442720479658,-0.072691636593,0.98813234055
1649362091258544921,,38601,,1649362091,255358742,"""atracsys""",,,0.191479644775,-0.0042703871727,1.40271557617,,-0.127966259131,-0.0443643529769,-0.0726846456259,0.988116077695
1649362091268673896,,38602,,1649362091,267063474,"""atracsys""",,,0.191481994629,-0.00427818059921,1.40271765137,,-0.127828255013,-0.0441238283096,-0.0726815110015,0.988144940256
1649362091278748989,,38603,,1649362091,277180473,"""atracsys""",,,0.191480270386,-0.00427679300308,1.4027109375,,-0.127900871623,-0.0442958652201,-0.0726694295147,0.988128735225
1649362091288816928,,38604,,1649362091,288180173,"""atracsys""",,,0.191478179932,-0.00426396608353,1.40271594238,,-0.127843729649,-0.0444800743464,-0.0726401705336,0.988130006325
1649362091298926115,,38605,,1649362091,288180465,"""atracsys""",,,0.191478179932,-0.00426396608353,1.40271594238,,-0.127843729649,-0.0444800743464,-0.0726401705336,0.988130006325
1649362091308849096,,38606,,1649362091,288180342,"""atracsys""",,,0.191478179932,-0.00426396608353,1.40271594238,,-0.127843729649,-0.0444800743464,-0.0726401705336,0.988130006325
1649362091318895101,,38607,,1649362091,288180291,"""atracsys""",,,0.191478179932,-0.00426396608353,1.40271594238,,-0.127843729649,-0.0444800743464,-0.0726401705336,0.988130006325
1649362091329125881,,38608,,1649362091,288180637,"""atracsys""",,,0.191478179932,-0.00426396608353,1.40271594238,,-0.127843729649,-0.0444800743464,-0.0726401705336,0.988130006325
1649362091339046955,,38609,,1649362091,288180344,"""atracsys""",,,0.191478179932,-0.00426396608353,1.40271594238,,-0.127843729649,-0.0444800743464,-0.0726401705336,0.988130006325
1649362091349133014,,38610,,1649362091,288180290,"""atracsys""",,,0.191478179932,-0.00426396608353,1.40271594238,,-0.127843729649,-0.0444800743464,-0.0726401705336,0.988130006325
1649362091359137058,,38611,,1649362091,288180327,"""atracsys""",,,0.191478179932,-0.00426396608353,1.40271594238,,-0.127843729649,-0.0444800743464,-0.0726401705336,0.988130006325
1649362091369211912,,38612,,1649362091,362999429,"""atracsys""",,,0.191457580566,-0.00428036689758,1.4026340332,,-0.127077050612,-0.0440707093518,-0.0727723785962,0.988237510267
1649362091379290103,,38613,,1649362091,374298674,"""atracsys""",,,0.191454574585,-0.00426001739502,1.40263134766,,-0.128049739432,-0.045270783275,-0.0726253691262,0.988068507834
1649362094324490070,,38614,,1649362094,323562979,"""atracsys""",,,0.19146812439,-0.00422323274612,1.40268884277,,-0.12799181303,-0.0442533685002,-0.0726551600999,0.988119913211
1649362094334487915,,38615,,1649362094,332171263,"""atracsys""",,,0.191469055176,-0.00422194242477,1.40268786621,,-0.128068080037,-0.0442990184006,-0.072654331465,0.988108046705
1649362094344624042,,38616,,1649362094,343970471,"""atracsys""",,,0.19146875,-0.00424479675293,1.40268566895,,-0.127963821157,-0.0443237032948,-0.0726657345079,0.988119608565
1649362094354671955,,38617,,1649362094,352505803,"""atracsys""",,,0.19146824646,-0.00426473999023,1.40268676758,,-0.12807079834,-0.0443311098563,-0.0726670192221,0.988105322134
1649362094364711046,,38618,,1649362094,364407821,"""atracsys""",,,0.191472610474,-0.00427766895294,1.40268115234,,-0.128044183248,-0.0442680036622,-0.0726631814451,0.988111882861
1649362094374756097,,38619,,1649362094,373115463,"""atracsys""",,,0.191470779419,-0.00427842235565,1.4026796875,,-0.127990361666,-0.0441735545462,-0.0726881742805,0.988121244443
1649362094384826898,,38620,,1649362094,382003987,"""atracsys""",,,0.191469299316,-0.00426339101791,1.40267907715,,-0.12797187744,-0.044267461129,-0.0726754506742,0.988120371887
1649362094394898891,,38621,,1649362094,393996041,"""atracsys""",,,0.191475219727,-0.00422844314575,1.40267773438,,-0.127859193449,-0.0442705664217,-0.0726574883224,0.988136140919
1649362094405118942,,38622,,1649362094,402906166,"""atracsys""",,,0.191475372314,-0.00421605062485,1.40268493652,,-0.127883534876,-0.0442523256079,-0.072675255657,0.988132501439
1649362094414975881,,38623,,1649362094,414710114,"""atracsys""",,,0.191476898193,-0.00423243904114,1.40267883301,,-0.127927008747,-0.0442101067611,-0.0726508248347,0.988130560475
1649362094424988031,,38624,,1649362094,423652257,"""atracsys""",,,0.191477233887,-0.00424787139893,1.40268017578,,-0.127842531084,-0.0443943969182,-0.0726644716456,0.988132227654
1649362094435065031,,38625,,1649362094,432618473,"""atracsys""",,,0.191478012085,-0.00426446008682,1.40267932129,,-0.127769830506,-0.0444454445196,-0.0726419041547,0.988140995321
1649362094445133924,,38626,,1649362094,444532509,"""atracsys""",,,0.191479049683,-0.0042867398262,1.40267822266,,-0.127911230343,-0.0445161510538,-0.0726515386766,0.988118810354
1649362094455236911,,38627,,1649362094,453499445,"""atracsys""",,,0.191480560303,-0.00427506446838,1.40268029785,,-0.127864760066,-0.0442999060377,-0.0726450921345,0.988135017114
1649362094465291976,,38628,,1649362094,462383459,"""atracsys""",,,0.191484191895,-0.00425571203232,1.40266943359,,-0.127817818445,-0.0441796899623,-0.0726526859083,0.98814591408
1649362094475286006,,38629,,1649362094,474323981,"""atracsys""",,,0.191482009888,-0.00422806406021,1.40266809082,,-0.128010972772,-0.0443817030392,-0.0726744136886,0.988110259475
1649362094485373020,,38630,,1649362094,483301263,"""atracsys""",,,0.191480987549,-0.00422299194336,1.40266931152,,-0.127889823842,-0.0444704445894,-0.0726676670154,0.988122453285
1649362094495421886,,38631,,1649362094,492252377,"""atracsys""",,,0.191484237671,-0.00422375774384,1.40266003418,,-0.127786569968,-0.0445668331565,-0.0726416985731,0.988133378419
1649362094505491971,,38632,,1649362094,504195949,"""atracsys""",,,0.191482894897,-0.00425045490265,1.40265917969,,-0.127864981591,-0.0445345337837,-0.0726744011877,0.988122286559
1649362094515521049,,38633,,1649362094,513173741,"""atracsys""",,,0.191479034424,-0.0042735080719,1.40266845703,,-0.127971484669,-0.0443889046721,-0.0726472301861,0.988117049848
1649362094525574922,,38634,,1649362094,525079565,"""atracsys""",,,0.191480239868,-0.00427715396881,1.40266711426,,-0.127882786427,-0.0445105733298,-0.0726534153527,0.988122605265
1649362094535562992,,38635,,1649362094,534028587,"""atracsys""",,,0.191481887817,-0.00426934671402,1.40267102051,,-0.127901678929,-0.0444840117123,-0.0726376255777,0.988122516988
1649362094545664072,,38636,,1649362094,543019268,"""atracsys""",,,0.191476425171,-0.0042537021637,1.40266845703,,-0.127812536854,-0.0444627896039,-0.0726516079813,0.988133978579
1649362094555632114,,38637,,1649362094,554958245,"""atracsys""",,,0.191476196289,-0.0042304315567,1.4026751709,,-0.127720440033,-0.0446494145583,-0.072651420771,0.988137485392
1649362094565716981,,38638,,1649362094,563899392,"""atracsys""",,,0.191474975586,-0.00421879816055,1.40268579102,,-0.12797845719,-0.044457691434,-0.0726701635372,0.988111367964
1649362094575772047,,38639,,1649362094,572842315,"""atracsys""",,,0.191474563599,-0.00422903394699,1.4026763916,,-0.127891460277,-0.0443261263853,-0.072678104939,0.988127958298
1649362094585844039,,38640,,1649362094,584785917,"""atracsys""",,,0.191471542358,-0.00424958324432,1.40269238281,,-0.127810945927,-0.0448178797405,-0.0726321347923,0.988119574117
1649362094595868110,,38641,,1649362094,593779916,"""atracsys""",,,0.191473114014,-0.00426156330109,1.4026920166,,-0.127771356915,-0.0445859094466,-0.0726458210962,0.988134182036
1649362094605937957,,38642,,1649362094,605711539,"""atracsys""",,,0.19146963501,-0.00427784061432,1.4026940918,,-0.127757608498,-0.0444625975552,-0.0726532918814,0.988140966699
1649362094615999937,,38643,,1649362094,614644776,"""atracsys""",,,0.191466949463,-0.00428212833405,1.40270397949,,-0.127868342926,-0.0442839568625,-0.0726596163091,0.988134200501
1649362094626085042,,38644,,1649362094,623622048,"""atracsys""",,,0.191468826294,-0.00426117992401,1.40270617676,,-0.127811969632,-0.0445289154994,-0.0726577648681,0.988130621582
1649362094636081933,,38645,,1649362094,635537398,"""atracsys""",,,0.191471008301,-0.00422898101807,1.40269042969,,-0.127852220835,-0.0444970986995,-0.0726759018416,0.988125513853
1649362094646173954,,38646,,1649362094,644561984,"""atracsys""",,,0.191468078613,-0.00421425580978,1.40270361328,,-0.127862692356,-0.0446121667987,-0.072647691411,0.988121044918
1649362094656265974,,38647,,1649362094,653464832,"""atracsys""",,,0.191470123291,-0.00421503353119,1.40270239258,,-0.127826059297,-0.0443775195278,-0.0726651494246,0.988135066873
1649362094666270017,,38648,,1649362094,665404019,"""atracsys""",,,0.191472732544,-0.00423751354218,1.40269567871,,-0.127941144503,-0.0442837519082,-0.0726425620014,0.988126040061
1649362094676378011,,38649,,1649362094,674360398,"""atracsys""",,,0.191472122192,-0.00427862787247,1.40270141602,,-0.127777711476,-0.0443936120322,-0.0726412765739,0.988142352396
1649362094686311960,,38650,,1649362094,683290431,"""atracsys""",,,0.191470046997,-0.00430547142029,1.40269958496,,-0.127893064673,-0.0441221549682,-0.072686713255,0.988136246256
1649362094696410894,,38651,,1649362094,695258688,"""atracsys""",,,0.191474868774,-0.00428908443451,1.40270861816,,-0.127837478126,-0.0443141011703,-0.0726481231373,0.988137687687
1649362094706442117,,38652,,1649362094,704252271,"""atracsys""",,,0.19147869873,-0.00425708341599,1.40270495605,,-0.127781799035,-0.044369297715,-0.0726724193156,0.988140625987
1649362094716460943,,38653,,1649362094,716170189,"""atracsys""",,,0.191479049683,-0.00419843626022,1.40270507813,,-0.127805478575,-0.0442500197151,-0.0726499549624,0.988144564042
1649362094726557016,,38654,,1649362094,725085522,"""atracsys""",,,0.191483139038,-0.00417715358734,1.40270092773,,-0.127788662207,-0.0443364026165,-0.0726810746181,0.988140578363
1649362094736572027,,38655,,1649362094,734050349,"""atracsys""",,,0.191484313965,-0.00419950962067,1.40270385742,,-0.127977261972,-0.044512603325,-0.07264503977,0.988110898007
1649362094746659040,,38656,,1649362094,746028563,"""atracsys""",,,0.191480300903,-0.00427514791489,1.40269970703,,-0.127922514332,-0.0442704647024,-0.0726822400032,0.988126129738
1649362094756714105,,38657,,1649362094,755046615,"""atracsys""",,,0.191477767944,-0.00430764293671,1.40269750977,,-0.127932714906,-0.0439869823804,-0.0726653706837,0.988138709768
1649362094766762018,,38658,,1649362094,763899697,"""atracsys""",,,0.191479797363,-0.00430548095703,1.40269750977,,-0.127769184183,-0.0441261186081,-0.0726547734499,0.988154443963
1649362094776807069,,38659,,1649362094,775894063,"""atracsys""",,,0.191482727051,-0.0042746090889,1.40269616699,,-0.127734976586,-0.044044141494,-0.0726791922892,0.988160728002
1649362094786849021,,38660,,1649362094,784787362,"""atracsys""",,,0.19148223877,-0.00424355554581,1.40270495605,,-0.127833741285,-0.0442277069575,-0.0726676821067,0.98814060361
1649362094796905040,,38661,,1649362094,793779946,"""atracsys""",,,0.191480377197,-0.00420662784576,1.40270507813,,-0.127991860473,-0.0442583767899,-0.0726543275524,0.988119743971
1649362094806986093,,38662,,1649362094,805709897,"""atracsys""",,,0.191474761963,-0.00419939756393,1.40270458984,,-0.127848069137,-0.0444310609359,-0.0726593203766,0.988130242025
1649362094817075967,,38663,,1649362094,814647992,"""atracsys""",,,0.191472412109,-0.00422326946259,1.40270678711,,-0.128096759056,-0.0442123544759,-0.0726678903536,0.988107213688
1649362094827084064,,38664,,1649362094,826651513,"""atracsys""",,,0.191478988647,-0.00426758146286,1.40270324707,,-0.127882755048,-0.0443457851176,-0.0726608321839,0.988129473182
1649362094837102890,,38665,,1649362094,835612364,"""atracsys""",,,0.19147505188,-0.00429397821426,1.40269946289,,-0.127898622265,-0.0442112079474,-0.0726758941792,0.98813234231
1649362094847187995,,38666,,1649362094,844551458,"""atracsys""",,,0.191469238281,-0.00430526590347,1.40270556641,,-0.127847953465,-0.0443810634198,-0.072664016598,0.988132158517
1649362094857259988,,38667,,1649362094,856466506,"""atracsys""",,,0.191470031738,-0.00427346754074,1.40270458984,,-0.127924838917,-0.0442571147268,-0.0726681574798,0.988127462564
1649362094867280960,,38668,,1649362094,865418189,"""atracsys""",,,0.191471862793,-0.00422938728333,1.4027052002,,-0.128042193306,-0.0441385402924,-0.0726653224793,0.988117774814
1649362094877352952,,38669,,1649362094,874390938,"""atracsys""",,,0.191469024658,-0.00420457363129,1.4027130127,,-0.127956365404,-0.0443428450599,-0.0726617053127,0.98812001155
1649362094887371063,,38670,,1649362094,886294945,"""atracsys""",,,0.191466140747,-0.0042020406723,1.40270471191,,-0.127869835898,-0.0443878026245,-0.0726539987425,0.988129760969
1649362094897434949,,38671,,1649362094,895321260,"""atracsys""",,,0.191470626831,-0.00422948789597,1.4026998291,,-0.127965986858,-0.0441826374087,-0.0726697753231,0.988125348584
1649362094907474040,,38672,,1649362094,907216977,"""atracsys""",,,0.191471878052,-0.00428410625458,1.40270153809,,-0.128028824913,-0.044209627843,-0.0726671196807,0.988116196869
1649362094917536020,,38673,,1649362094,916135179,"""atracsys""",,,0.191470809937,-0.004308614254,1.40270458984,,-0.128084751534,-0.0443216160386,-0.072658873111,0.988104538465
1649362094927675008,,38674,,1649362094,925106901,"""atracsys""",,,0.191474212646,-0.00429938983917,1.40269226074,,-0.128022135175,-0.0443268554976,-0.0726708865725,0.988111534712
1649362094937607049,,38675,,1649362094,937031857,"""atracsys""",,,0.19147479248,-0.00426371240616,1.40268261719,,-0.12784951982,-0.0443901001798,-0.0726655242752,0.988131439065
1649362094947690010,,38676,,1649362094,946011794,"""atracsys""",,,0.191473739624,-0.00423717355728,1.40269311523,,-0.127949628186,-0.0441069165067,-0.0726710415641,0.988130756672
1649362094957751035,,38677,,1649362094,954959026,"""atracsys""",,,0.191477630615,-0.00421360731125,1.40268395996,,-0.127830406443,-0.0442880840102,-0.0726665581834,0.988138413445
1649362094967823982,,38678,,1649362094,966886442,"""atracsys""",,,0.191478866577,-0.00420493888855,1.40268347168,,-0.127906187747,-0.0443207871169,-0.0726541838991,0.988128050673
1649362094977883100,,38679,,1649362094,975900280,"""atracsys""",,,0.191477767944,-0.00423460865021,1.40266357422,,-0.12784496588,-0.0441777566225,-0.0726826259426,0.988140286804
1649362094987955093,,38680,,1649362094,984824256,"""atracsys""",,,0.191477920532,-0.00427078676224,1.40267114258,,-0.127821635198,-0.044546568308,-0.0726376827906,0.988130052102
1649362094998018980,,38681,,1649362094,996811778,"""atracsys""",,,0.191481903076,-0.00428853368759,1.40267492676,,-0.127872405848,-0.0443098756944,-0.0726438184677,0.988133674346
1649362095008074998,,38682,,1649362095,5746515,"""atracsys""",,,0.19147958374,-0.00428735733032,1.4026763916,,-0.127979861767,-0.0444465908443,-0.0726540342271,0.988112871516
1649362095018105030,,38683,,1649362095,17653949,"""atracsys""",,,0.191479553223,-0.00425978946686,1.40266931152,,-0.127935211994,-0.0445241026118,-0.0726431414502,0.988115964763
1649362095028181076,,38684,,1649362095,26669515,"""atracsys""",,,0.191481948853,-0.00423042726517,1.40267211914,,-0.127908706849,-0.0446183362929,-0.0726406580358,0.988115328076
1649362095038197040,,38685,,1649362095,35536170,"""atracsys""",,,0.191482421875,-0.00421438312531,1.40267053223,,-0.127855690516,-0.0444950277801,-0.0726554095212,0.988126665146
1649362095048271894,,38686,,1649362095,47475718,"""atracsys""",,,0.191479263306,-0.00422566604614,1.40266467285,,-0.127880163695,-0.044391354037,-0.0726536619121,0.988128289662
1649362095058628082,,38687,,1649362095,56450501,"""atracsys""",,,0.191481735229,-0.00424447965622,1.40265844727,,-0.127887008077,-0.0442421276532,-0.0726408041108,0.988135041826
1649362095068625926,,38688,,1649362095,68404959,"""atracsys""",,,0.191482925415,-0.00427110958099,1.40266027832,,-0.127949866467,-0.0444186100993,-0.0726414754786,0.988118937572
1649362095078687906,,38689,,1649362095,77397287,"""atracsys""",,,0.191477981567,-0.00429002475739,1.40266882324,,-0.127905827204,-0.0441331159525,-0.0726685323263,0.988135442059
1649362095088716030,,38690,,1649362095,86294245,"""atracsys""",,,0.191476669312,-0.00428376150131,1.40266784668,,-0.127735150337,-0.044353573692,-0.0726706810791,0.988147491006
1649362095098788022,,38691,,1649362095,98275595,"""atracsys""",,,0.191476089478,-0.00425451374054,1.40266320801,,-0.127800868218,-0.0443023079372,-0.0726584528911,0.988142192611
1649362095108880996,,38692,,1649362095,107212044,"""atracsys""",,,0.191474700928,-0.00423600530624,1.4026652832,,-0.127997023146,-0.0443150739455,-0.072649242739,0.98811690797
1649362095118899106,,38693,,1649362095,116146999,"""atracsys""",,,0.191473587036,-0.00422758293152,1.40266125488,,-0.128023191562,-0.0445090905098,-0.0726418167726,0.988105343443
1649362095128981113,,38694,,1649362095,128125859,"""atracsys""",,,0.191474395752,-0.00422064113617,1.40265612793,,-0.127891828423,-0.044351401516,-0.0726417685845,0.988129448434
1649362095139029979,,38695,,1649362095,137054531,"""atracsys""",,,0.191473983765,-0.00423414421082,1.40265966797,,-0.127790324306,-0.0443950391161,-0.0726513293337,0.98813991816
1649362095149107933,,38696,,1649362095,146000474,"""atracsys""",,,0.191471694946,-0.00426031494141,1.40265917969,,-0.127841576534,-0.0440710510632,-0.0726660640746,0.988146708186
1649362095159216880,,38697,,1649362095,157941234,"""atracsys""",,,0.191472290039,-0.00427836418152,1.40266113281,,-0.12791907313,-0.0442598539374,-0.0726617023053,0.988128561007
1649362095169178962,,38698,,1649362095,166898326,"""atracsys""",,,0.191474349976,-0.00427404069901,1.40265673828,,-0.127958265553,-0.0443140885912,-0.0726386687853,0.988122749271
1649362095179251909,,38699,,1649362095,178847777,"""atracsys""",,,0.191473388672,-0.0042531208992,1.40266040039,,-0.12781068108,-0.0443637102104,-0.0726458526357,0.988139095023
1649362095189268112,,38700,,1649362095,187836640,"""atracsys""",,,0.191472763062,-0.00423089122772,1.4026751709,,-0.127799235356,-0.0443293909583,-0.0726412421732,0.988142454546
1649362095199373006,,38701,,1649362095,196776110,"""atracsys""",,,0.191475265503,-0.00421568727493,1.40268017578,,-0.127913329238,-0.0445212470719,-0.0726661006988,0.988117238273
1649362095209489107,,38702,,1649362095,208710491,"""atracsys""",,,0.191475219727,-0.00422928762436,1.4026829834,,-0.128083351827,-0.0442126249978,-0.0726571534704,0.988109729142
1649362095219511985,,38703,,1649362095,217674422,"""atracsys""",,,0.19147416687,-0.00425107097626,1.40268249512,,-0.127907884604,-0.0442199616367,-0.0726802630416,0.988130430365
