rosbagTimestamp,header,seq,stamp,secs,nsecs,frame_id,pose,position,x,y,z,orientation,x,y,z,w
1651014517523320974,,1,,1651014517,508319918,"""atracsys""",,,0.0979353942871,0.0200809860229,1.2026932373,,0.0603144343729,0.0177812548671,0.0277967120447,0.997633870105
1651014517555504423,,2,,1651014517,538172872,"""atracsys""",,,0.097949508667,0.0201075057983,1.20257275391,,0.0607355602122,0.0180505547346,0.0278856361545,0.997601002654
1651014517589365906,,3,,1651014517,579948021,"""atracsys""",,,0.0977228927612,0.0201627750397,1.202390625,,0.0610160742977,0.0197651035548,0.0279568792677,0.997549393394
1651014517621782718,,4,,1651014517,609811997,"""atracsys""",,,0.0975337677002,0.0201718902588,1.20226623535,,0.0609594926824,0.0210434349107,0.0279832216881,0.99752596628
1651014517656439826,,5,,1651014517,639684109,"""atracsys""",,,0.0974818115234,0.0202064361572,1.2021574707,,0.0611899172368,0.0217591312456,0.0280311668533,0.997495156841
1651014517688573044,,6,,1651014517,669490843,"""atracsys""",,,0.0975127716064,0.0202584171295,1.20206335449,,0.0614273821682,0.0218187822212,0.0281851749391,0.99747491867
1651014517723499645,,7,,1651014517,711285825,"""atracsys""",,,0.0977389755249,0.0203513774872,1.2019263916,,0.0617786386447,0.0212879711829,0.0285185651281,0.997455218811
1651014517757068962,,8,,1651014517,741236257,"""atracsys""",,,0.0981756286621,0.0205056495667,1.2018001709,,0.0624445351632,0.0193957045074,0.0290523644907,0.997436938755
1651014517791523993,,9,,1651014517,770984039,"""atracsys""",,,0.0984395980835,0.0206149673462,1.20160778809,,0.0629876063226,0.0187673454432,0.0294854019766,0.997402105104
1651014517824045278,,10,,1651014517,809818093,"""atracsys""",,,0.0989146499634,0.0208534049988,1.20130895996,,0.063990168777,0.0170261664385,0.0300489369141,0.997352710603
1651014517857281694,,11,,1651014517,839720009,"""atracsys""",,,0.0991244812012,0.02101313591,1.20100463867,,0.0648106965068,0.0162403760427,0.030328268988,0.99730437676
1651014517890579790,,12,,1651014517,872473390,"""atracsys""",,,0.0995972595215,0.0212726078033,1.20060961914,,0.0663732002518,0.0140816006468,0.0307303184038,0.997222118859
1651014517922644415,,13,,1651014517,911260640,"""atracsys""",,,0.0998893661499,0.0216600646973,1.19989025879,,0.0680415203832,0.0128691046392,0.0311238427273,0.997113857121
1651014517957754813,,14,,1651014517,941182537,"""atracsys""",,,0.100259490967,0.0220216827393,1.19920446777,,0.0701031377596,0.0119976241052,0.0317331712972,0.996962693851
1651014517990409054,,15,,1651014517,970974127,"""atracsys""",,,0.101082725525,0.0225667762756,1.19840612793,,0.0727578335008,0.00879618842449,0.0325609189617,0.996779168768
1651014518024899960,,16,,1651014518,12786055,"""atracsys""",,,0.102963043213,0.0236281166077,1.19689990234,,0.0776742050528,0.00118256062066,0.0344647061464,0.996382207514
1651014518059177122,,17,,1651014518,42682199,"""atracsys""",,,0.104184249878,0.0245081233978,1.19557507324,,0.0817583389926,-0.00240705767915,0.0361648876497,0.995992912113
1651014518089612453,,18,,1651014518,72506361,"""atracsys""",,,0.10562613678,0.0254728145599,1.19423022461,,0.0862668191052,-0.00797044881031,0.0376589574475,0.995528156704
1651014518122548742,,19,,1651014518,111454508,"""atracsys""",,,0.106909996033,0.026588476181,1.19250280762,,0.0916321303488,-0.0131328546218,0.0388884356773,0.994946616853
1651014518157491199,,20,,1651014518,144154751,"""atracsys""",,,0.107579582214,0.0274967460632,1.19103112793,,0.095914607046,-0.0161827765996,0.0393484590675,0.994479866395
1651014518189977115,,21,,1651014518,174045432,"""atracsys""",,,0.108008331299,0.0282136535645,1.18975439453,,0.0997600961602,-0.0190979354751,0.0393202430131,0.994050859144
1651014518224371300,,22,,1651014518,212823425,"""atracsys""",,,0.108829772949,0.0291368274689,1.18835424805,,0.104457572255,-0.02589658451,0.0386608833042,0.993440143447
1651014518256561366,,23,,1651014518,242674271,"""atracsys""",,,0.108588150024,0.0297315311432,1.18711254883,,0.107549905052,-0.0262925837094,0.0378228400688,0.993131990591
1651014518290686165,,24,,1651014518,272536848,"""atracsys""",,,0.108244155884,0.0302637042999,1.18589501953,,0.110456286928,-0.026910747628,0.0366725782525,0.992839535043
1651014518324195236,,25,,1651014518,314330391,"""atracsys""",,,0.107573760986,0.0310971565247,1.18410656738,,0.115149953931,-0.0267925140607,0.0348906170363,0.992373565822
1651014518358665972,,26,,1651014518,344169490,"""atracsys""",,,0.107022720337,0.0316266860962,1.1828581543,,0.118459820953,-0.0269246607196,0.0334995993493,0.992028281002
1651014518393906826,,27,,1651014518,374015194,"""atracsys""",,,0.10634311676,0.0321469764709,1.18169042969,,0.12124112377,-0.026012479913,0.0321428425068,0.991761452402
1651014518423398597,,28,,1651014518,415781832,"""atracsys""",,,0.105558990479,0.0327226791382,1.18035449219,,0.12470590272,-0.0262115584469,0.0300037418629,0.991393548246
1651014518459436590,,29,,1651014518,445616756,"""atracsys""",,,0.104875770569,0.0329853172302,1.17960705566,,0.126481975881,-0.0258482161994,0.0284232355923,0.99122464617
1651014518490862408,,30,,1651014518,475552109,"""atracsys""",,,0.103949485779,0.0331108818054,1.17910974121,,0.127363676063,-0.0239045317357,0.0268328682274,0.991204854995
1651014518522886339,,31,,1651014518,505307546,"""atracsys""",,,0.102937080383,0.0330399017334,1.17879785156,,0.127841389519,-0.0227630993044,0.0248508769532,0.991221899652
1651014518557868429,,32,,1651014518,544180439,"""atracsys""",,,0.101275466919,0.032776512146,1.17868603516,,0.127603219836,-0.0202610849543,0.0216298631587,0.991382396325
1651014518591307700,,33,,1651014518,574132477,"""atracsys""",,,0.0996029281616,0.0323314208984,1.17885217285,,0.12662329737,-0.0176806321555,0.0186127858026,0.991618626295
1651014518625098769,,34,,1651014518,606830036,"""atracsys""",,,0.0973464355469,0.0316353054047,1.17927746582,,0.124638095563,-0.0133310299767,0.0149017009704,0.992000790364
1651014518658077312,,35,,1651014518,645606130,"""atracsys""",,,0.0945218734741,0.0306668510437,1.18012585449,,0.121479579838,-0.00795325913978,0.0101195660312,0.992510479408
1651014518691551789,,36,,1651014518,675506737,"""atracsys""",,,0.0922220230103,0.0297403259277,1.18102380371,,0.118436803027,-0.003411498852,0.00628392476324,0.992935847703
1651014518724044880,,37,,1651014518,705306403,"""atracsys""",,,0.0898128967285,0.0287670173645,1.18214147949,,0.114592386849,0.00146917511795,0.00240001466219,0.993408609954
1651014518760188424,,38,,1651014518,747148895,"""atracsys""",,,0.0865540847778,0.0272181072235,1.18413122559,,0.108474992446,0.00818960004933,-0.0028297861989,0.994061415997
1651014518794596417,,39,,1651014518,777005402,"""atracsys""",,,0.0845174026489,0.0260786037445,1.18580236816,,0.103285107702,0.013370598508,-0.00588035934213,0.994544536457
1651014518827731554,,40,,1651014518,815775238,"""atracsys""",,,0.0826582565308,0.0246652317047,1.18814160156,,0.0967994169918,0.018197767072,-0.00860811150488,0.995100303768
1651014518862824038,,41,,1651014518,845609181,"""atracsys""",,,0.081831413269,0.0236207637787,1.1900012207,,0.0919902331315,0.0197135621467,-0.0100430873863,0.995514092754
1651014518891876077,,42,,1651014518,878432698,"""atracsys""",,,0.0808960723877,0.0225368881226,1.19207202148,,0.0864086517818,0.022999436217,-0.0112239541223,0.995931018537
1651014518925181334,,43,,1651014518,908288645,"""atracsys""",,,0.0800254669189,0.0215457077026,1.19394396973,,0.0815429443103,0.0265311703148,-0.0120356691123,0.996243939958
1651014518957773108,,44,,1651014518,947140541,"""atracsys""",,,0.0792088394165,0.0203557624817,1.19632873535,,0.0749475835863,0.0303049329841,-0.0128096557639,0.996644562254
1651014518991152872,,45,,1651014518,977002386,"""atracsys""",,,0.0788067092896,0.0195363540649,1.19810266113,,0.0702476882575,0.0331035398426,-0.0130149094223,0.996895195132
1651014519024726206,,46,,1651014519,6834296,"""atracsys""",,,0.0785706481934,0.0187722663879,1.19974719238,,0.0656919774163,0.0360242357262,-0.0127342487851,0.99710814732
1651014519060034971,,47,,1651014519,48772043,"""atracsys""",,,0.0787680206299,0.0179172477722,1.20178894043,,0.0604147089061,0.0383383267848,-0.0115330856066,0.997370153746
1651014519093496521,,48,,1651014519,78515969,"""atracsys""",,,0.0793709030151,0.0174349079132,1.20299462891,,0.0573567058005,0.0387518547175,-0.0100529773517,0.997550720366
1651014519125191894,,49,,1651014519,108355395,"""atracsys""",,,0.0803755111694,0.0170959949493,1.20403430176,,0.055148433049,0.0379759904736,-0.00795031701337,0.997724043481
1651014519158368575,,50,,1651014519,147168840,"""atracsys""",,,0.0819943084717,0.016814371109,1.2051496582,,0.0525771985008,0.0363396731102,-0.00472752434891,0.997944245371
1651014519193549034,,51,,1651014519,179949150,"""atracsys""",,,0.0836450958252,0.0166755466461,1.20588085938,,0.0511413670003,0.0341172820038,-0.00156117518564,0.998107275989
1651014519225344495,,52,,1651014519,209845112,"""atracsys""",,,0.0852840499878,0.0166517047882,1.2064552002,,0.0500075037473,0.0316819848117,0.0015982612782,0.998244933355
1651014519260537355,,53,,1651014519,248662077,"""atracsys""",,,0.0874520797729,0.0166913642883,1.20698303223,,0.0490570680921,0.0287744367605,0.00585286783162,0.998364252063
1651014519296964054,,54,,1651014519,278510854,"""atracsys""",,,0.0892522735596,0.0168517894745,1.2072121582,,0.0487078549468,0.026258384075,0.00935431270636,0.998424027639
1651014519327475214,,55,,1651014519,308334537,"""atracsys""",,,0.0911169433594,0.0171210422516,1.20725524902,,0.0489502988531,0.0235574641389,0.0128961105895,0.998440085562
1651014519364613551,,56,,1651014519,350193016,"""atracsys""",,,0.093802482605,0.0176106472015,1.20700061035,,0.0500067353949,0.0193289666581,0.0179869467998,0.998399813305
1651014519395986212,,57,,1651014519,379989683,"""atracsys""",,,0.0958619995117,0.0181351795197,1.20658044434,,0.0515876201452,0.0158773077762,0.0219411757375,0.998301163654
1651014519427836847,,58,,1651014519,409812982,"""atracsys""",,,0.0980749282837,0.01877734375,1.20595239258,,0.0537363710038,0.0124870930676,0.0260880685526,0.998136206946
1651014519464034785,,59,,1651014519,451675301,"""atracsys""",,,0.101296089172,0.0198653202057,1.20474987793,,0.0574175131174,0.00680701421253,0.0321528152135,0.997809145187
1651014519494761023,,60,,1651014519,481520396,"""atracsys""",,,0.103450691223,0.0207469806671,1.20372131348,,0.0606082083823,0.00326833612511,0.0362643112941,0.997497299636
1651014519530355247,,61,,1651014519,511321661,"""atracsys""",,,0.105537139893,0.0216444587708,1.20259777832,,0.0641219169413,-0.000706400573822,0.0400163168952,0.997139195473
1651014519560436980,,62,,1651014519,541203854,"""atracsys""",,,0.107465995789,0.0226134166718,1.2014140625,,0.0677233349069,-0.004602894874,0.0433524550012,0.996751186562
1651014519594352224,,63,,1651014519,580042430,"""atracsys""",,,0.109579574585,0.0238126678467,1.19981347656,,0.0727346938401,-0.00904865824859,0.0468693486764,0.99620833677
1651014519627296939,,64,,1651014519,609803602,"""atracsys""",,,0.110889709473,0.0246549224854,1.19861425781,,0.0762340032475,-0.0122068028136,0.0489390545028,0.995813406045
1651014519659820639,,65,,1651014519,642636053,"""atracsys""",,,0.112068656921,0.025573097229,1.19733666992,,0.08021095784,-0.0155841764134,0.0506127633881,0.995370124059
1651014519696044507,,66,,1651014519,681469371,"""atracsys""",,,0.113020484924,0.0264925842285,1.19584106445,,0.0845057068911,-0.0176861738014,0.0522222067983,0.994896389518
1651014519726799290,,67,,1651014519,711327578,"""atracsys""",,,0.113833343506,0.0272692241669,1.19469592285,,0.0880367780592,-0.0204531645614,0.0532397121125,0.99448314557
1651014519760412846,,68,,1651014519,741201838,"""atracsys""",,,0.114567955017,0.0280203876495,1.19355078125,,0.0915837133882,-0.0227737407516,0.0541542254893,0.994062925592
1651014519794768027,,69,,1651014519,782991796,"""atracsys""",,,0.11531678009,0.0289615783691,1.19204211426,,0.0959765614992,-0.0253759857354,0.055079665486,0.993534493332
1651014519827114563,,70,,1651014519,812851341,"""atracsys""",,,0.115672492981,0.0295727386475,1.19108007812,,0.0987629962534,-0.0266796489595,0.0553431136759,0.993212568724
1651014519861277740,,71,,1651014519,842741459,"""atracsys""",,,0.115880134583,0.0300629348755,1.19017712402,,0.101237058828,-0.0277696849105,0.0553807657993,0.992931454482
1651014519893936419,,72,,1651014519,881538290,"""atracsys""",,,0.116046516418,0.0307226715088,1.18904858398,,0.10449205158,-0.0298649769213,0.0549870356379,0.992555247944
1651014519929291912,,73,,1651014519,914255820,"""atracsys""",,,0.116023033142,0.0311832523346,1.18812780762,,0.107015552306,-0.0306568738544,0.0544785836672,0.992290235552
1651014519960255071,,74,,1651014519,944155149,"""atracsys""",,,0.116004096985,0.0315988750458,1.18732568359,,0.109105937263,-0.0315758821353,0.0539972862289,0.992060054231
1651014519993689986,,75,,1651014519,982980589,"""atracsys""",,,0.116293777466,0.0322970695496,1.18621630859,,0.112441377011,-0.0337028747842,0.0538034732924,0.991628075051
1651014520027235272,,76,,1651014520,12827772,"""atracsys""",,,0.116673324585,0.0329209022522,1.1852557373,,0.11546838813,-0.035678018783,0.053930213924,0.991204147663
1651014520064211710,,77,,1651014520,42797199,"""atracsys""",,,0.116986785889,0.0336072998047,1.1842331543,,0.118560173237,-0.0369927268272,0.0541134965988,0.990780880402
1651014520098819370,,78,,1651014520,84476801,"""atracsys""",,,0.117232566833,0.0344940223694,1.18274023437,,0.122867429789,-0.0387050963072,0.0540644194904,0.990193187596
1651014520129307172,,79,,1651014520,114313258,"""atracsys""",,,0.117164161682,0.0351187438965,1.18160827637,,0.12596070991,-0.0392412324249,0.0536456398969,0.989806127763
1651014520164078939,,80,,1651014520,144215055,"""atracsys""",,,0.116728012085,0.0356677246094,1.1804630127,,0.128803790957,-0.0386242873207,0.0527192163053,0.989514240472
1651014520194503222,,81,,1651014520,174053452,"""atracsys""",,,0.116071456909,0.0360534057617,1.17943530273,,0.131023499886,-0.0378673153388,0.0513563835856,0.989323723951
1651014520228464726,,82,,1651014520,215803474,"""atracsys""",,,0.115029159546,0.0365101661682,1.17819848633,,0.133778119742,-0.0367760507779,0.0490800247388,0.989111767162
1651014520260665992,,83,,1651014520,245650436,"""atracsys""",,,0.114275535583,0.0367424240112,1.17739489746,,0.135612070578,-0.0360579349681,0.0474745925819,0.988966811728
1651014520294128448,,84,,1651014520,275529168,"""atracsys""",,,0.113601127625,0.0370463981628,1.17659301758,,0.137281598044,-0.0349926827153,0.0462031301044,0.98883494364
1651014520326384523,,85,,1651014520,314283596,"""atracsys""",,,0.112981185913,0.0375599136353,1.17550073242,,0.139957183765,-0.0339307294038,0.0451047475303,0.988547547701
1651014520359775307,,86,,1651014520,344195282,"""atracsys""",,,0.112628189087,0.037981010437,1.17462365723,,0.142208283504,-0.0331507518264,0.0445103364338,0.988279647522
1651014520393494131,,87,,1651014520,377009774,"""atracsys""",,,0.112305908203,0.0385268745422,1.17363903809,,0.144834718078,-0.0326372436457,0.0439480295898,0.987940426069
1651014520426501174,,88,,1651014520,415806922,"""atracsys""",,,0.11208115387,0.0391991882324,1.17242456055,,0.148238119766,-0.0332491444942,0.0432818104971,0.98744449926
1651014520460078056,,89,,1651014520,445713732,"""atracsys""",,,0.111882072449,0.0397729949951,1.17148144531,,0.150712256582,-0.0335996190894,0.0425761258329,0.987088726925
1651014520493003228,,90,,1651014520,475571385,"""atracsys""",,,0.111645294189,0.0402814407349,1.17058447266,,0.152970259721,-0.0343821619195,0.0414786174549,0.986761111352
1651014520526065537,,91,,1651014520,517305318,"""atracsys""",,,0.111005363464,0.0408108787537,1.16947241211,,0.156042456759,-0.0351595626673,0.0393471457943,0.986339880041
1651014520557723909,,92,,1651014520,547359050,"""atracsys""",,,0.11021598053,0.0411431159973,1.16870239258,,0.157829413471,-0.0342912591979,0.0377667350776,0.986147889268
1651014520593190571,,93,,1651014520,577025738,"""atracsys""",,,0.109336082458,0.0414127426147,1.16790710449,,0.159370229048,-0.032705211794,0.0361945134596,0.986012908846
1651014520625767725,,94,,1651014520,615768557,"""atracsys""",,,0.108294342041,0.0418661384583,1.16684204102,,0.161838658858,-0.0314826539246,0.0341233551499,0.985724448126
1651014520659262938,,95,,1651014520,648712551,"""atracsys""",,,0.107551208496,0.0422427062988,1.16597570801,,0.16388522726,-0.0307684745203,0.0324484995957,0.985465386574
1651014520691007564,,96,,1651014520,678561777,"""atracsys""",,,0.10694278717,0.0425589370728,1.16528125,,0.165590904206,-0.0304985931944,0.0310868280147,0.9852325093
1651014520726912193,,97,,1651014520,717330201,"""atracsys""",,,0.106483657837,0.0429945678711,1.16454284668,,0.1677895856,-0.0317245795465,0.0292308795142,0.984878551751
1651014520760055488,,98,,1651014520,747337257,"""atracsys""",,,0.106070503235,0.0431265678406,1.16415881348,,0.168904399156,-0.0321294197458,0.0281066110178,0.984707582356
1651014520794528324,,99,,1651014520,776997300,"""atracsys""",,,0.105539047241,0.0432009010315,1.16389624023,,0.16936935305,-0.0312172779984,0.0270340090967,0.984687090478
1651014520828140033,,100,,1651014520,806873319,"""atracsys""",,,0.105020317078,0.0431977462769,1.16373120117,,0.169692616161,-0.0311857830856,0.0257338464927,0.984667269741
1651014520861269028,,101,,1651014520,848712893,"""atracsys""",,,0.104204475403,0.0430499572754,1.16363598633,,0.169842667743,-0.0308235075815,0.0238287044309,0.984700752736
1651014520893756515,,102,,1651014520,878564364,"""atracsys""",,,0.103456230164,0.0429148902893,1.16360083008,,0.169552329142,-0.0295180834931,0.0226347594392,0.98481894686
1651014520926157930,,103,,1651014520,908356504,"""atracsys""",,,0.102641410828,0.0427024383545,1.16360925293,,0.16913973323,-0.0279017065088,0.0213265722805,0.984966203852
1651014520961539820,,104,,1651014520,950203178,"""atracsys""",,,0.101293739319,0.0422846641541,1.16379846191,,0.167963704772,-0.0253623061605,0.0191024474749,0.985281707841
1651014520993973630,,105,,1651014520,979987913,"""atracsys""",,,0.100182174683,0.0418366889954,1.16408044434,,0.166769085934,-0.0231193383094,0.0172995382625,0.98557307905
1651014521027269131,,106,,1651014521,18786464,"""atracsys""",,,0.0985092163086,0.0411017379761,1.16464074707,,0.164582695446,-0.0202612588948,0.0144710268017,0.9860489882
1651014521064385965,,107,,1651014521,48697429,"""atracsys""",,,0.0971437911987,0.0403960494995,1.16526782227,,0.162437906994,-0.0186498003657,0.0118052051694,0.986471869061
1651014521094802566,,108,,1651014521,78522863,"""atracsys""",,,0.0956697235107,0.0395565795898,1.16605688477,,0.159604619893,-0.0163358046934,0.00911511017628,0.987003759649
1651014521128076994,,109,,1651014521,111344818,"""atracsys""",,,0.0940294342041,0.0385813941956,1.16710168457,,0.156302417082,-0.0138485561346,0.0062220252803,0.987592556831
1651014521160246153,,110,,1651014521,150229032,"""atracsys""",,,0.0919707946777,0.0372735290527,1.16854638672,,0.151672573865,-0.00937256696706,0.00313787291563,0.988381373296
1651014521192501188,,111,,1651014521,179976616,"""atracsys""",,,0.090631149292,0.0362211685181,1.16982849121,,0.147788024292,-0.00656438641089,0.00105883549306,0.988996707565
1651014521226718287,,112,,1651014521,209868737,"""atracsys""",,,0.0894291763306,0.0351673278809,1.17122229004,,0.143698885634,-0.00359390455963,-0.000542216892679,0.9896147837
1651014521258810821,,113,,1651014521,239720383,"""atracsys""",,,0.0882644271851,0.034041595459,1.17270605469,,0.139032306891,0.000381087441296,-0.00167588188748,0.990286354462
1651014521294083040,,114,,1651014521,281492818,"""atracsys""",,,0.0871454238892,0.0325124740601,1.17498059082,,0.132529543495,0.00421404121206,-0.00279960403602,0.991166143578
1651014521326662527,,115,,1651014521,311340587,"""atracsys""",,,0.0865828399658,0.031378698349,1.1767791748,,0.12745229713,0.00696483882171,-0.00311978413155,0.991815340637
1651014521359347538,,116,,1651014521,350255814,"""atracsys""",,,0.0861912612915,0.0298816871643,1.17925500488,,0.120690341278,0.00959659573822,-0.0029331798137,0.99263948306
1651014521391352184,,117,,1651014521,382998540,"""atracsys""",,,0.0862812576294,0.0286743354797,1.18144689941,,0.115029964972,0.011031224063,-0.00227504638324,0.993298164409
1651014521434297407,,118,,1651014521,412780581,"""atracsys""",,,0.0865534133911,0.0275966339111,1.1834309082,,0.109556315818,0.01236679978,-0.00110304689299,0.993903043166
1651014521467562457,,119,,1651014521,451757695,"""atracsys""",,,0.0875360488892,0.0264343795776,1.18589038086,,0.103352033945,0.0122084644245,0.001146912919,0.994569251016
1651014521500922951,,120,,1651014521,481530519,"""atracsys""",,,0.0885542984009,0.0256330852509,1.18769494629,,0.0988916007655,0.0120390296636,0.0034792906174,0.995019300114
1651014521530119624,,121,,1651014521,511304687,"""atracsys""",,,0.0896443634033,0.0249231643677,1.18936169434,,0.0947204981804,0.0114414554996,0.00582165631214,0.9954211313
1651014521563037522,,122,,1651014521,541247057,"""atracsys""",,,0.0911380996704,0.0243691177368,1.19095092773,,0.0913827339129,0.00831810797055,0.00821752531686,0.995747195477
1651014521595351090,,123,,1651014521,582979918,"""atracsys""",,,0.0929101486206,0.0235086097717,1.19323303223,,0.0858774784195,0.00682701176909,0.0118940214742,0.996211314362
1651014521630238995,,124,,1651014521,612815516,"""atracsys""",,,0.0943323059082,0.023027048111,1.19478710937,,0.0824948600089,0.00428894220873,0.0144149937144,0.996478003271
1651014521663112123,,125,,1651014521,651750767,"""atracsys""",,,0.096396736145,0.0224639911652,1.19670251465,,0.0781889139481,0.000235737662748,0.0179493678718,0.996776935105
1651014521696330955,,126,,1651014521,684509507,"""atracsys""",,,0.0981186981201,0.0220598526001,1.19823779297,,0.0746746637302,-0.00157702528882,0.0214914565636,0.996975087393
1651014521728665957,,127,,1651014521,714263523,"""atracsys""",,,0.0997645874023,0.0218336677551,1.19948413086,,0.0717277022443,-0.00303566939632,0.0250455326818,0.997105131235
1651014521762594410,,128,,1651014521,744181833,"""atracsys""",,,0.101577453613,0.0216713657379,1.20059265137,,0.0695558622345,-0.00501321066946,0.0288165912012,0.997149163275
1651014521794905257,,129,,1651014521,782939541,"""atracsys""",,,0.104191505432,0.0217197303772,1.20175720215,,0.0673949699284,-0.00849093043975,0.0338589222814,0.997115537694
1651014521827813106,,130,,1651014521,812800649,"""atracsys""",,,0.106488197327,0.0219235134125,1.2024342041,,0.0667047736116,-0.0133946320861,0.0377510909917,0.99696836065
1651014521861211996,,131,,1651014521,845626345,"""atracsys""",,,0.108880821228,0.0221584510803,1.20312512207,,0.0658520484245,-0.0169131969004,0.0423030717841,0.996788794884
1651014521893136100,,132,,1651014521,875470708,"""atracsys""",,,0.110920822144,0.0224721717834,1.20362109375,,0.0653255613079,-0.0195059830714,0.046363134429,0.996595478331
1651014521927950937,,133,,1651014521,914280690,"""atracsys""",,,0.113613990784,0.0229234638214,1.20407666016,,0.0653559762745,-0.0236514963274,0.0514945792282,0.996251730938
1651014521962658354,,134,,1651014521,944248734,"""atracsys""",,,0.115580207825,0.0233844165802,1.20427575684,,0.0657885664012,-0.0270815992382,0.0550531202015,0.995945583589
1651014521996494970,,135,,1651014521,985970135,"""atracsys""",,,0.118240379333,0.0241096000671,1.20430322266,,0.0671403722182,-0.0334334264395,0.0596192649784,0.995399376963
1651014522031707961,,136,,1651014522,15852854,"""atracsys""",,,0.120111251831,0.0247196464539,1.20412927246,,0.0684509910806,-0.0363867422253,0.0628211186841,0.995009534556
1651014522065608263,,137,,1651014522,45709813,"""atracsys""",,,0.121969612122,0.0254842414856,1.20373901367,,0.0704386665459,-0.0406195745665,0.0658485460089,0.994511142927
1651014522098191876,,138,,1651014522,84430322,"""atracsys""",,,0.124509361267,0.0266036319733,1.2028963623,,0.0745044847006,-0.0471624579267,0.0697719111629,0.993658223301
1651014522128485143,,139,,1651014522,117283610,"""atracsys""",,,0.126668685913,0.0278116359711,1.20183093262,,0.0796113829794,-0.0532880835651,0.0727774249236,0.99273654827
1651014522161153995,,140,,1651014522,147154913,"""atracsys""",,,0.128455551147,0.0289565868378,1.20058557129,,0.0865170997391,-0.0586963971761,0.0749120577342,0.991694362199
1651014522194014059,,141,,1651014522,176988384,"""atracsys""",,,0.130047271729,0.0300861949921,1.19911962891,,0.0949765215292,-0.0643294398156,0.0763768751084,0.990458356762
1651014522227639642,,142,,1651014522,215769357,"""atracsys""",,,0.131767089844,0.0316432304382,1.19713964844,,0.105096643314,-0.071789570745,0.0773490243979,0.98884684432
1651014522262002283,,143,,1651014522,245661441,"""atracsys""",,,0.132743286133,0.0326967124939,1.19562316895,,0.110813478125,-0.077277688871,0.0774705986143,0.987798986747
1651014522294794451,,144,,1651014522,275525596,"""atracsys""",,,0.133500793457,0.0337616462708,1.19408032227,,0.115623588414,-0.0827180192874,0.0771956678719,0.9868281228
1651014522328065688,,145,,1651014522,317330642,"""atracsys""",,,0.13412487793,0.0351350135803,1.1919786377,,0.119920539973,-0.0885665214062,0.0764398067047,0.985866112274
1651014522362146153,,146,,1651014522,347210777,"""atracsys""",,,0.134358779907,0.0359881095886,1.19053820801,,0.12219511172,-0.092188060937,0.07557224186,0.985321547695
1651014522394694987,,147,,1651014522,376963712,"""atracsys""",,,0.134310913086,0.0367568473816,1.18924975586,,0.123789261124,-0.0954607247554,0.0741169673891,0.984921389759
1651014522427195076,,148,,1651014522,418788039,"""atracsys""",,,0.133441390991,0.0373882789612,1.18745007324,,0.127027388731,-0.0978089120574,0.0707855851196,0.984523671718
1651014522463228318,,149,,1651014522,448650256,"""atracsys""",,,0.13253805542,0.0378672981262,1.18602197266,,0.130600416054,-0.0987665456434,0.0678650915843,0.984166159819
1651014522495618968,,150,,1651014522,478592960,"""atracsys""",,,0.131709747314,0.0383598480225,1.18460961914,,0.134537917755,-0.101160767445,0.0644348143608,0.983622998163
1651014522528767438,,151,,1651014522,517313570,"""atracsys""",,,0.13032434082,0.0388363990784,1.18279785156,,0.139475708773,-0.104245616331,0.0593336896172,0.982933818431
1651014522561708835,,152,,1651014522,547185238,"""atracsys""",,,0.129260742187,0.0392714195251,1.18144628906,,0.143312926672,-0.10703328602,0.0550773209413,0.982329766143
1651014522595441626,,153,,1651014522,580037804,"""atracsys""",,,0.127741462708,0.0395743598938,1.17992175293,,0.14692168015,-0.107629725458,0.0505922110004,0.981972652514
1651014522628219476,,154,,1651014522,609873674,"""atracsys""",,,0.126129875183,0.0398558692932,1.17853564453,,0.149699664098,-0.106799396573,0.0465600154494,0.981843197472
1651014522667108837,,155,,1651014522,648776753,"""atracsys""",,,0.123971488953,0.0401568069458,1.17682397461,,0.153266472796,-0.105492723207,0.0413326635029,0.981668113262
1651014522699488813,,156,,1651014522,678541234,"""atracsys""",,,0.122411315918,0.0403348121643,1.17558435059,,0.156109203979,-0.105780674043,0.0370336917438,0.981360724254
1651014522728628248,,157,,1651014522,708385316,"""atracsys""",,,0.1206485672,0.0405824165344,1.17435913086,,0.158364835217,-0.104636262607,0.0328030243817,0.981272537629
1651014522775804794,,158,,1651014522,750300658,"""atracsys""",,,0.11789995575,0.0407819480896,1.1726159668,,0.161396036493,-0.100742283271,0.0270960013988,0.981360340789
1651014522798351620,,159,,1651014522,780022144,"""atracsys""",,,0.116199821472,0.0410569229126,1.17142053223,,0.163675514184,-0.0991426663849,0.0232822651039,0.981243595592
1651014522831099227,,160,,1651014522,818791391,"""atracsys""",,,0.114047279358,0.0413596229553,1.16997253418,,0.166441607173,-0.0970729259619,0.0184687105793,0.98108763379
1651014522861970747,,161,,1651014522,848746822,"""atracsys""",,,0.112231422424,0.0414608535767,1.1690090332,,0.168068705622,-0.0948167601086,0.0147454690208,0.981093911578
1651014522895102941,,162,,1651014522,881531045,"""atracsys""",,,0.110008834839,0.0414179840088,1.16822033691,,0.168988617673,-0.0912652179408,0.0106263936633,0.981325933036
1651014522928940374,,163,,1651014522,911359041,"""atracsys""",,,0.107734886169,0.0410880088806,1.16779040527,,0.169151107657,-0.0873597371855,0.00662226157669,0.981688506986
1651014522961113846,,164,,1651014522,950268738,"""atracsys""",,,0.104204971313,0.0402919540405,1.1676809082,,0.167077978845,-0.0802866206898,0.00108412022553,0.982668729637
1651014522995822251,,165,,1651014522,980032244,"""atracsys""",,,0.101281784058,0.0394214820862,1.16800842285,,0.164349606583,-0.0736340983577,-0.00313566503871,0.983644953212
1651014523030648086,,166,,1651014523,21785620,"""atracsys""",,,0.0973709716797,0.0378426818848,1.16913037109,,0.15911919043,-0.0652031862612,-0.00866710806734,0.985065738403
1651014523066556198,,167,,1651014523,51748762,"""atracsys""",,,0.0944021072388,0.0365441551208,1.17032641602,,0.154107041894,-0.0578066173562,-0.012403120325,0.986283720455
1651014523097437801,,168,,1651014523,81493557,"""atracsys""",,,0.0914021835327,0.0350615196228,1.17181140137,,0.148594546775,-0.0493807722015,-0.0159583798588,0.987535584229
1651014523130404746,,169,,1651014523,111341747,"""atracsys""",,,0.0888341751099,0.033575668335,1.17358642578,,0.142519434918,-0.0431853704688,-0.0192752122296,0.988661570327
1651014523163881287,,170,,1651014523,153161564,"""atracsys""",,,0.0859359054565,0.0314758377075,1.1764354248,,0.133772555688,-0.0359472053746,-0.0229538916868,0.990093844354
1651014523194921153,,171,,1651014523,182964367,"""atracsys""",,,0.0839092712402,0.0299098987579,1.17868444824,,0.127030668683,-0.0298583830627,-0.025195182729,0.99112909802
1651014523228530399,,172,,1651014523,212812532,"""atracsys""",,,0.0817244491577,0.0283179092407,1.18108325195,,0.119752242956,-0.0235019163671,-0.0276318665307,0.992140887267
1651014523259958561,,173,,1651014523,251668267,"""atracsys""",,,0.0788070831299,0.0261909503937,1.18445666504,,0.110147924645,-0.0149328718138,-0.0309730357537,0.993320248003
1651014523295037435,,174,,1651014523,281519422,"""atracsys""",,,0.0767047195435,0.0246293144226,1.18710144043,,0.102648386087,-0.00857503486203,-0.0334326139638,0.994118724265
1651014523327914327,,175,,1651014523,314290615,"""atracsys""",,,0.0746065979004,0.0230331668854,1.18996850586,,0.0944756389271,-0.00171442912477,-0.035723312647,0.994884545722
1651014523362623451,,176,,1651014523,344232410,"""atracsys""",,,0.0734001541138,0.0216810646057,1.19255187988,,0.0875831059104,0.00151571572836,-0.0373339114256,0.995456217632
1651014523395028530,,177,,1651014523,382969174,"""atracsys""",,,0.0721929779053,0.020116765976,1.19573388672,,0.0793118953306,0.00553973397312,-0.0386192751342,0.996086083727
1651014523430161281,,178,,1651014523,412802875,"""atracsys""",,,0.0715005111694,0.0190323123932,1.19804443359,,0.0730887731178,0.00945355816108,-0.0388476396422,0.996523718923
1651014523463933477,,179,,1651014523,442652805,"""atracsys""",,,0.0713670349121,0.0180990695953,1.20015185547,,0.0679805098858,0.0115694918166,-0.0383159401608,0.996883486604
1651014523497220513,,180,,1651014523,484488385,"""atracsys""",,,0.0719173583984,0.0169811382294,1.20283532715,,0.0611098995984,0.0141136391995,-0.0361584566712,0.997376033084
1651014523531998408,,181,,1651014523,514288784,"""atracsys""",,,0.0729156188965,0.0163430614471,1.20452563477,,0.0570459715112,0.0146501660461,-0.0335014595016,0.997701750014
1651014523564148039,,182,,1651014523,553181716,"""atracsys""",,,0.0752986297607,0.0156927127838,1.20647729492,,0.052621362381,0.0113932674953,-0.0289887459251,0.998128668202
1651014523597369071,,183,,1651014523,586051130,"""atracsys""",,,0.0774093704224,0.0151668272018,1.20820690918,,0.0487501988743,0.00896779576347,-0.0247601688858,0.998463785415
1651014523630065113,,184,,1651014523,615803687,"""atracsys""",,,0.0790907440186,0.0146848735809,1.20980993652,,0.0448380018653,0.00893538709403,-0.0207794360327,0.998738167632
1651014523662265758,,185,,1651014523,645679991,"""atracsys""",,,0.0811349563599,0.0142745199203,1.21135510254,,0.041271700103,0.00750244216735,-0.0164608363383,0.998984184559
1651014523696580338,,186,,1651014523,684487095,"""atracsys""",,,0.0842253799438,0.0138975381851,1.21326672363,,0.0370407224393,0.00444478495356,-0.0100700778114,0.999253132245
1651014523729133554,,187,,1651014523,714310455,"""atracsys""",,,0.0864948196411,0.0136612606049,1.21461669922,,0.0339639009935,0.00355837518817,-0.00484341907723,0.999404989325
1651014523761558766,,188,,1651014523,747135637,"""atracsys""",,,0.089046333313,0.0134751195908,1.21607055664,,0.0305409003424,0.00372618676553,0.00127588976986,0.999525758069
1651014523796560674,,189,,1651014523,785985963,"""atracsys""",,,0.0923403549194,0.0133099908829,1.2178815918,,0.0259561015009,0.00449114974582,0.0092968302129,0.999609763516
1651014523830035470,,190,,1651014523,815764123,"""atracsys""",,,0.0951684341431,0.0132576999664,1.21930249023,,0.0226734458815,0.00359416238678,0.0157336283384,0.999612649874
1651014523864449099,,191,,1651014523,845736183,"""atracsys""",,,0.0982323532104,0.0133136548996,1.22073413086,,0.0193986371592,0.0015493623652,0.0223369363569,0.999561080488
1651014523901335047,,192,,1651014523,887477493,"""atracsys""",,,0.102202362061,0.0134609012604,1.22252978516,,0.0155828033622,0.000406336917249,0.0312432257721,0.999390250089
1651014523939564050,,193,,1651014523,917265399,"""atracsys""",,,0.104961273193,0.0137068862915,1.22343640137,,0.012673842251,0.00652906734225,0.0377676960243,0.999184840827
1651014523971070237,,194,,1651014523,947213946,"""atracsys""",,,0.107844215393,0.014149389267,1.22380566406,,0.00993417484483,0.024365855271,0.0450276875594,0.998639136335
1651014524001763214,,195,,1651014523,986005067,"""atracsys""",,,0.111659797668,0.014942773819,1.22389575195,,0.00754536979536,0.0425494807053,0.0545199890197,0.997577154853
1651014524035647352,,196,,1651014523,997902924,"""atracsys""",,,0.112896354675,0.0152616167068,1.22391186523,,0.00723787930147,0.0442822888237,0.0573605644929,0.997344703521
1651014524071032090,,197,,1651014523,977003893,"""atracsys""",,,0.110757637024,0.0147228250504,1.22389807129,,0.00788636219958,0.0393487162725,0.0523427608209,0.997822488827
1651014524100594477,,198,,1651014523,968044010,"""atracsys""",,,0.10987525177,0.014522149086,1.22389282227,,0.00821723150639,0.0358717277084,0.0501616924313,0.998062874207
1651014524131632682,,199,,1651014523,956118120,"""atracsys""",,,0.108709991455,0.0142993030548,1.22385827637,,0.00913649271622,0.0292972893637,0.0472427724569,0.998411895856
1651014524165231540,,200,,1651014523,935232663,"""atracsys""",,,0.106690750122,0.0139448776245,1.22369580078,,0.0109471282117,0.0169384617376,0.0421039438204,0.998909658985
1651014524198013247,,201,,1651014523,926238891,"""atracsys""",,,0.105819885254,0.0138090934753,1.22358300781,,0.0117699778282,0.0113709223599,0.0398947278318,0.999069857637
1651014524231515221,,202,,1651014523,905383812,"""atracsys""",,,0.103847084045,0.0135935993195,1.22314672852,,0.0137985101678,0.00244546739053,0.0350554221638,0.999287114989
1651014524265082351,,203,,1651014524,257638513,"""atracsys""",,,0.140280380249,0.0257417583466,1.22039892578,,0.0199857039286,-0.103139698863,0.0944807058322,0.989967762295
1651014524298587925,,204,,1651014524,287503375,"""atracsys""",,,0.142129974365,0.0270194606781,1.21864367676,,0.0333588503954,-0.115158516138,0.0945450905974,0.988274723498
1651014524337133974,,205,,1651014524,317290359,"""atracsys""",,,0.143055038452,0.0280048866272,1.21699914551,,0.0400797995429,-0.121756248464,0.0942397155183,0.987262833114
1651014524370218721,,206,,1651014524,350194903,"""atracsys""",,,0.143496337891,0.0288978061676,1.21517773438,,0.0436005903762,-0.125975576344,0.093776668705,0.986628136174
1651014524401851714,,207,,1651014524,379988104,"""atracsys""",,,0.144021347046,0.0297860469818,1.21344287109,,0.0475934691782,-0.130392431242,0.0933466701811,0.985910277222
1651014524434111575,,208,,1651014524,419015989,"""atracsys""",,,0.145249664307,0.0312722034454,1.2109876709,,0.0565762848912,-0.139712879762,0.0925023828159,0.98423713829
1651014524462925025,,209,,1651014524,448663968,"""atracsys""",,,0.146391677856,0.0324993247986,1.20905871582,,0.0653542707586,-0.148888258076,0.0913471323168,0.982454481041
1651014524497304063,,210,,1651014524,460573623,"""atracsys""",,,0.146767654419,0.0329726333618,1.20829296875,,0.0685108960941,-0.152150293349,0.0908305638131,0.981787326272
1651014524530484422,,211,,1651014524,439671748,"""atracsys""",,,0.146075332642,0.0321371955872,1.20964489746,,0.0628731251383,-0.14627065044,0.0917343386387,0.982973386247
1651014524563242831,,212,,1651014524,427775239,"""atracsys""",,,0.145608215332,0.0316397705078,1.21041491699,,0.0591257783801,-0.142523294994,0.0922033123069,0.983712255649
1651014524596237147,,213,,1651014524,409826201,"""atracsys""",,,0.144918075562,0.0309080219269,1.21156835937,,0.0539588022782,-0.136899365831,0.0927599599855,0.984755097024
1651014524628231475,,214,,1651014524,397930427,"""atracsys""",,,0.144524200439,0.0304280376434,1.21232653809,,0.0512608995396,-0.134142357685,0.0930159591028,0.985254372944
1651014524664825003,,215,,1651014524,389075714,"""atracsys""",,,0.144254547119,0.0300908603668,1.21288696289,,0.0492345274474,-0.132037914472,0.0932067487974,0.985623889944
1651014524698888092,,216,,1651014524,681565636,"""atracsys""",,,0.141353729248,0.0390882530212,1.18937878418,,0.164894075885,-0.17301841336,0.055796522465,0.969412874093
1651014524730693252,,217,,1651014524,720280619,"""atracsys""",,,0.139200790405,0.0395256462097,1.18739135742,,0.15494607011,-0.171725525619,0.0525042681997,0.971465573775
1651014524763446245,,218,,1651014524,750268019,"""atracsys""",,,0.137550109863,0.0399890365601,1.1856829834,,0.151898358265,-0.170393703858,0.0492767846109,0.972350077359
1651014524795061732,,219,,1651014524,780041659,"""atracsys""",,,0.135747344971,0.0404318161011,1.18364624023,,0.154887176363,-0.168550538125,0.044903188001,0.972411632182
1651014524830920837,,220,,1651014524,812874264,"""atracsys""",,,0.133685150146,0.0408848190308,1.18147717285,,0.158900336478,-0.165822794782,0.0399432298683,0.972449495956
1651014524863655196,,221,,1651014524,851972878,"""atracsys""",,,0.131313674927,0.0413120727539,1.17923339844,,0.163093517784,-0.164388518681,0.0337358520944,0.972233928469
1651014524897415006,,222,,1651014524,881548275,"""atracsys""",,,0.129275344849,0.0414344902039,1.17773022461,,0.165598086658,-0.162884044087,0.0287117766809,0.972225126067
1651014524929364779,,223,,1651014524,911380012,"""atracsys""",,,0.126915481567,0.0414467926025,1.1763536377,,0.167411872877,-0.160250117781,0.0234557958172,0.972493182605
1651014524965184055,,224,,1651014524,953248103,"""atracsys""",,,0.123283737183,0.0411631202698,1.17473388672,,0.169090640467,-0.156440838612,0.0155405651552,0.972981556945
1651014524998082682,,225,,1651014524,983047729,"""atracsys""",,,0.120343391418,0.0407878379822,1.17376977539,,0.169470802176,-0.152664109538,0.00963644977317,0.973591524051
1651014525036475262,,226,,1651014525,21785468,"""atracsys""",,,0.116289382935,0.040121673584,1.17282849121,,0.168856456968,-0.147011129282,0.00180946466446,0.974613744334
1651014525069148295,,227,,1651014525,51846343,"""atracsys""",,,0.113004318237,0.0394008026123,1.1724083252,,0.167355475556,-0.141973108405,-0.00408884372062,0.975612147653
1651014525099425799,,228,,1651014525,81540390,"""atracsys""",,,0.109445999146,0.0385292701721,1.17230285645,,0.165060143019,-0.135525988561,-0.00994278499162,0.976877165583
1651014525131565073,,229,,1651014525,114366125,"""atracsys""",,,0.105293411255,0.0372993659973,1.17258276367,,0.161255641957,-0.127512818172,-0.0163434433535,0.978503955535
1651014525163370007,,230,,1651014525,153206043,"""atracsys""",,,0.100449539185,0.0355964508057,1.17357873535,,0.155539127537,-0.117944970803,-0.0237316924066,0.980476093764
1651014525195288093,,231,,1651014525,182978085,"""atracsys""",,,0.0967093048096,0.0341221313477,1.1748145752,,0.149944126177,-0.110168614482,-0.0291593416566,0.982104560728
1651014525230467297,,232,,1651014525,212831419,"""atracsys""",,,0.0930714569092,0.0324567756653,1.17649853516,,0.143273750478,-0.10238660242,-0.0341928014375,0.9837786684
1651014525262016887,,233,,1651014525,254624415,"""atracsys""",,,0.0882653579712,0.0299764976501,1.17951818848,,0.133030393427,-0.0916686460511,-0.0405039742768,0.986032049085
1651014525298397833,,234,,1651014525,284644357,"""atracsys""",,,0.0851028060913,0.0281160182953,1.18207995605,,0.12438954193,-0.0827025178098,-0.0437028108947,0.987814557357
1651014525330773377,,235,,1651014525,314324316,"""atracsys""",,,0.0826821975708,0.0262980041504,1.18495800781,,0.11599935276,-0.0748832474431,-0.0457153438533,0.989366846396
1651014525362759625,,236,,1651014525,353154278,"""atracsys""",,,0.0802895736694,0.0240021972656,1.18889746094,,0.104731548612,-0.0678823401838,-0.0477569677506,0.991031060385
1651014525398562590,,237,,1651014525,385954600,"""atracsys""",,,0.0783418273926,0.0221215705872,1.19234521484,,0.0950278950121,-0.0612534345637,-0.0490337624046,0.992377652947
1651014525430628376,,238,,1651014525,415825270,"""atracsys""",,,0.0767673187256,0.0204811668396,1.19559375,,0.0858647361126,-0.0545211058838,-0.04975853446,0.993568711441
1651014525462873422,,239,,1651014525,445674435,"""atracsys""",,,0.0755854415894,0.0189133815765,1.19881311035,,0.077131996492,-0.0491247765853,-0.0500018074544,0.994553784716
1651014525495555839,,240,,1651014525,484647916,"""atracsys""",,,0.0749708099365,0.0171196727753,1.20293225098,,0.0666176023917,-0.0447443834966,-0.0492049036404,0.995559597741
1651014525531984461,,241,,1651014525,514326978,"""atracsys""",,,0.0749867553711,0.0158352384567,1.20606188965,,0.0587376784479,-0.0427707762185,-0.0479982290064,0.996201142262
1651014525564679511,,242,,1651014525,544159958,"""atracsys""",,,0.0749925842285,0.0145956401825,1.20918505859,,0.0509691628753,-0.0400675443579,-0.0465188890168,0.996811280679
1651014525598608938,,243,,1651014525,585935615,"""atracsys""",,,0.0754100570679,0.0130476675034,1.21345349121,,0.0403443425302,-0.0346639094704,-0.0433815223946,0.997641614469
1651014525632161535,,244,,1651014525,615782110,"""atracsys""",,,0.0761608428955,0.0121069097519,1.2161661377,,0.0336940917219,-0.0328521835069,-0.0407726963305,0.998059632214
1651014525663987408,,245,,1651014525,645696312,"""atracsys""",,,0.0774929275513,0.0113594360352,1.21865100098,,0.0280938864151,-0.0329815378507,-0.0374656459565,0.998358290936
1651014525695610148,,246,,1651014525,687530570,"""atracsys""",,,0.0797143554687,0.0104492521286,1.22200683594,,0.0202345046512,-0.0321759814935,-0.0316212088834,0.998776937151
1651014525730749543,,247,,1651014525,717335120,"""atracsys""",,,0.0816312866211,0.00996885967255,1.22413696289,,0.0151853250087,-0.0315932478997,-0.0267409080954,0.999027625457
1651014525762908914,,248,,1651014525,747216770,"""atracsys""",,,0.0841946487427,0.00992766666412,1.22648803711,,0.00333492744621,-0.0322653072067,-0.0222002890345,0.99922718907
1651014525798146075,,249,,1651014525,756175866,"""atracsys""",,,0.085014289856,0.0100617103577,1.22725231934,,-0.00177103909441,-0.0323746815381,-0.0211031501685,0.999251420048
1651014525830583828,,250,,1651014525,735231776,"""atracsys""",,,0.0831557159424,0.00977865886688,1.22532531738,,0.0124763738929,-0.0328061650913,-0.02334711369,0.999111108891
1651014525863310546,,251,,1651014525,848732282,"""atracsys""",,,0.0948821792603,0.00950938606262,1.23188525391,,-0.00156170909393,-0.0363058365544,0.0035190499165,0.999333309554
1651014525895538623,,252,,1651014525,887573930,"""atracsys""",,,0.0988354492187,0.00973819446564,1.23314294434,,-0.00409480679773,-0.0352852579201,0.0118420979926,0.999298728032
1651014525931388762,,253,,1651014525,917401004,"""atracsys""",,,0.102570732117,0.0103364744186,1.23319628906,,-0.00609270366653,-0.00882068361477,0.0204967633776,0.999732442803
1651014525963429391,,254,,1651014525,947222318,"""atracsys""",,,0.106260452271,0.0110847225189,1.23283972168,,-0.00793524730478,0.0203821705186,0.0298882348367,0.999313910838
1651014525997885765,,255,,1651014525,938364746,"""atracsys""",,,0.105164825439,0.0108374814987,1.23295153809,,-0.00741115124655,0.0127118397731,0.0270496168472,0.999525788659
1651014526031619948,,256,,1651014525,929298264,"""atracsys""",,,0.104059005737,0.0106069145203,1.23307263184,,-0.00694934381226,0.00374832301535,0.0241896725267,0.999676205798
1651014526067842508,,257,,1651014525,908463211,"""atracsys""",,,0.10144644928,0.0101465368271,1.23324450684,,-0.00557961428668,-0.0181475903298,0.0177529543382,0.999662125661
1651014526099181609,,258,,1651014525,896504782,"""atracsys""",,,0.0999476318359,0.0098928527832,1.2332467041,,-0.0047567862698,-0.0292453293544,0.0143021986406,0.999458618858
1651014526132616293,,259,,1651014525,878555295,"""atracsys""",,,0.0977437438965,0.00961527347565,1.23291333008,,-0.00350902693675,-0.0373495115891,0.00953410423133,0.99925062
1651014526164568466,,260,,1651014525,866610245,"""atracsys""",,,0.0963170166016,0.00948074054718,1.23249291992,,-0.0023535516571,-0.0389478550638,0.00654162509003,0.999217059763
1651014526196001753,,261,,1651014525,857681049,"""atracsys""",,,0.095598991394,0.00948026847839,1.2326184082,,-0.00573733275327,-0.0234135779999,0.00512654328401,0.999696256836
1651014526232320142,,262,,1651014526,218832611,"""atracsys""",,,0.139112060547,0.0232056026459,1.22653271484,,0.0171437195116,-0.134222246669,0.0831595562603,0.98730692775
1651014526264638558,,263,,1651014526,248686240,"""atracsys""",,,0.1405025177,0.0243947715759,1.22445092773,,0.0270764089516,-0.140526172171,0.0837962259813,0.986152856065
1651014526296497771,,264,,1651014526,278518612,"""atracsys""",,,0.141672393799,0.0255127429962,1.22234912109,,0.0356817643104,-0.146234127318,0.0840367891934,0.985028024863
1651014526331026352,,265,,1651014526,320297006,"""atracsys""",,,0.143041900635,0.0271374187469,1.21935119629,,0.04573017566,-0.154431071812,0.0839867918806,0.983364639329
1651014526364004623,,266,,1651014526,350219055,"""atracsys""",,,0.144020431519,0.0283117218018,1.21720166016,,0.0523419807367,-0.16023238465,0.0838104093784,0.982121028816
1651014526398798136,,267,,1651014526,379958681,"""atracsys""",,,0.145084671021,0.0295760498047,1.2150279541,,0.0595674475211,-0.166523810836,0.0836576655097,0.980674734365
1651014526431536707,,268,,1651014526,421781301,"""atracsys""",,,0.146620315552,0.0313703041077,1.21201135254,,0.0704715819432,-0.174843130744,0.0831601193696,0.978543831577
1651014526464374951,,269,,1651014526,451698610,"""atracsys""",,,0.147524719238,0.0325654067993,1.20993286133,,0.0777419559505,-0.181239074095,0.0821480234948,0.976913654599
1651014526498107479,,270,,1651014526,469580160,"""atracsys""",,,0.147907348633,0.0332332801819,1.20876367188,,0.0810794047607,-0.185027428384,0.081344683109,0.975998987397
1651014526530485529,,271,,1651014526,460619757,"""atracsys""",,,0.147738708496,0.0329024467468,1.20933813477,,0.079627132304,-0.183166298111,0.081760769455,0.976434741094
1651014526565927772,,272,,1651014526,439736522,"""atracsys""",,,0.147212203979,0.0321057167053,1.21074743652,,0.075035651811,-0.178824109767,0.0826085510952,0.977531286461
1651014526598095001,,273,,1651014526,430733064,"""atracsys""",,,0.146934158325,0.0317390594482,1.21137976074,,0.0727588761453,-0.17705357865,0.0829086144713,0.978000172738
1651014526629730896,,274,,1651014526,409844726,"""atracsys""",,,0.146184585571,0.0308745937347,1.2128638916,,0.0672461024511,-0.172020928006,0.0834103297395,0.979249446732
1651014526665109431,,275,,1651014526,400894327,"""atracsys""",,,0.145853591919,0.0304878921509,1.21351013184,,0.0648985300359,-0.170319955423,0.0835279751768,0.979695039768
1651014526696799528,,276,,1651014526,388932763,"""atracsys""",,,0.145407669067,0.02996717453,1.21436767578,,0.0619083269438,-0.167862532371,0.0835993933715,0.980306416744
1651014526730949398,,277,,1651014526,371053801,"""atracsys""",,,0.144764785767,0.0291776847839,1.21568029785,,0.057469821672,-0.164415877353,0.0836900089816,0.981152700281
1651014526763291036,,278,,1651014526,753218990,"""atracsys""",,,0.142289367676,0.040713306427,1.18739685059,,0.170384187122,-0.194786628306,0.0484485896962,0.964717643857
1651014526798727253,,279,,1651014526,783026319,"""atracsys""",,,0.14099105835,0.0409780807495,1.18621875,,0.165256888498,-0.193055966314,0.0466519503782,0.966045107746
1651014526832154042,,280,,1651014526,821879307,"""atracsys""",,,0.138792831421,0.0411741142273,1.18453295898,,0.160005821321,-0.189186178701,0.0434226578168,0.967843582259
1651014526865349985,,281,,1651014526,851686854,"""atracsys""",,,0.136352035522,0.041138130188,1.18285986328,,0.160669186274,-0.183440217116,0.0393335624313,0.969013916408
1651014526898086818,,282,,1651014526,884488118,"""atracsys""",,,0.133475860596,0.0410338935852,1.18111096191,,0.162139511522,-0.177012346332,0.034325126685,0.970154211313
1651014526931549013,,283,,1651014526,914345707,"""atracsys""",,,0.130660873413,0.0408061676025,1.17963500977,,0.162878584143,-0.169969950452,0.0297518765134,0.971439966552
1651014526963312109,,284,,1651014526,953181579,"""atracsys""",,,0.126114067078,0.0402507820129,1.17782104492,,0.162178286196,-0.156319513915,0.0238024184029,0.974010193958
1651014526999148612,,285,,1651014526,983017644,"""atracsys""",,,0.122654319763,0.0397514877319,1.1766619873,,0.161425115427,-0.146086422585,0.0193063879426,0.975821680754
1651014527033303468,,286,,1651014527,24790122,"""atracsys""",,,0.118488288879,0.039074798584,1.1755715332,,0.160415387642,-0.136311932301,0.0130406243246,0.977504937398
1651014527069424314,,287,,1651014527,54690001,"""atracsys""",,,0.115660682678,0.0385337753296,1.17508728027,,0.159292260281,-0.129686956605,0.00892149671828,0.978635619624
1651014527099567352,,288,,1651014527,84519182,"""atracsys""",,,0.11302154541,0.0378980102539,1.17486730957,,0.157787150031,-0.123103713785,0.00530645408072,0.979755343176
1651014527132997304,,289,,1651014527,114328327,"""atracsys""",,,0.110782546997,0.0372516403198,1.17496362305,,0.155668679881,-0.118124684383,0.00210623103165,0.980718810279
1651014527165050690,,290,,1651014527,153217172,"""atracsys""",,,0.108325187683,0.0362592964172,1.17552062988,,0.152396793915,-0.112554403127,-0.00149002015582,0.98188823365
1651014527197342262,,291,,1651014527,186042538,"""atracsys""",,,0.106213180542,0.035179561615,1.1764329834,,0.148591830068,-0.108203126649,-0.00449600129722,0.982950831625
1651014527235356191,,292,,1651014527,215827549,"""atracsys""",,,0.103786499023,0.0339759254456,1.17752331543,,0.144138328161,-0.102438492641,-0.00766920985286,0.984211197254
1651014527269186392,,293,,1651014527,254666537,"""atracsys""",,,0.100094596863,0.0321065292358,1.17934997559,,0.136883220596,-0.0939500335212,-0.0126505497024,0.986040738871
1651014527300265202,,294,,1651014527,284557302,"""atracsys""",,,0.0966985549927,0.0304752502441,1.18110168457,,0.130327816478,-0.0859119047043,-0.0171447513654,0.987592963919
1651014527333241377,,295,,1651014527,314337112,"""atracsys""",,,0.0927805175781,0.0286310329437,1.18318945313,,0.12266611972,-0.0761074270333,-0.0220952430859,0.989278769031
1651014527365132769,,296,,1651014527,347221896,"""atracsys""",,,0.0881460571289,0.0264434623718,1.18597290039,,0.113128773594,-0.064063794342,-0.0279429460884,0.991119015358
1651014527397585087,,297,,1651014527,386002789,"""atracsys""",,,0.0825689544678,0.0237820549011,1.1898692627,,0.101024530663,-0.0507558629742,-0.0352870187482,0.992961586813
1651014527432878943,,298,,1651014527,415763944,"""atracsys""",,,0.0784492416382,0.0216943855286,1.19329321289,,0.0906067070621,-0.040473773307,-0.0407435884331,0.994229479703
1651014527464889153,,299,,1651014527,445655096,"""atracsys""",,,0.0744000396729,0.0196829891205,1.19696447754,,0.0799665386066,-0.030286275142,-0.0461907324264,0.995266050099
1651014527499123042,,300,,1651014527,487618906,"""atracsys""",,,0.06860105896,0.0170337753296,1.20233972168,,0.0645848150243,-0.0127414809569,-0.0533283947697,0.996404806614
1651014527531279392,,301,,1651014527,517376289,"""atracsys""",,,0.0648842391968,0.0153449172974,1.20621691895,,0.0538963913324,0.000559586708377,-0.0575737902265,0.996885211317
1651014527566198407,,302,,1651014527,556125219,"""atracsys""",,,0.0612526893616,0.0134426383972,1.21108581543,,0.041258573146,0.0132490260205,-0.0618185671544,0.997146257179
1651014527598051856,,303,,1651014527,586096525,"""atracsys""",,,0.0590687980652,0.0121731510162,1.21453308105,,0.0324697770918,0.0213167417146,-0.0643788811272,0.997169328531
1651014527633402352,,304,,1651014527,615911858,"""atracsys""",,,0.0577180938721,0.0111221513748,1.21765075684,,0.0248019486405,0.0278091516633,-0.0655726034229,0.997151817983
1651014527665336504,,305,,1651014527,648677171,"""atracsys""",,,0.0575059700012,0.0100781879425,1.22085620117,,0.0170510680139,0.0312904370582,-0.0650294686792,0.997246879078
1651014527697616534,,306,,1651014527,687512300,"""atracsys""",,,0.0582176856995,0.00898201751709,1.22426525879,,0.00874297342981,0.0331217096404,-0.0629630627321,0.997427774577
1651014527732526904,,307,,1651014527,717371278,"""atracsys""",,,0.0591767921448,0.00824014472961,1.22677148437,,0.00289053013918,0.0340188655111,-0.0603054591311,0.997595916804
1651014527764632617,,308,,1651014527,726275260,"""atracsys""",,,0.0595892372131,0.00799384307861,1.22743688965,,0.00170649574227,0.030404711478,-0.059158032234,0.997784029044
1651014527799936436,,309,,1651014527,789008706,"""atracsys""",,,0.0631103210449,0.00657346343994,1.23275146484,,-0.011014901454,0.0329350862247,-0.0511360406366,0.99808770025
1651014527831992995,,310,,1651014527,818849935,"""atracsys""",,,0.0655323028564,0.00601550722122,1.23516088867,,-0.0171871852835,0.0329197220748,-0.0463736593012,0.998233628107
1651014527867042209,,311,,1651014527,848725991,"""atracsys""",,,0.0676114730835,0.00549719285965,1.23740368652,,-0.0227339469808,0.0336120559723,-0.0415152812556,0.998313517273
1651014527898907365,,312,,1651014527,887548633,"""atracsys""",,,0.070521697998,0.00504556083679,1.23990209961,,-0.028902421537,0.0350333743084,-0.0345070447431,0.998371963036
1651014527931023329,,313,,1651014527,917385468,"""atracsys""",,,0.0733428497314,0.00483052825928,1.24148571777,,-0.0324559477371,0.0347156749211,-0.0281701763613,0.998472771053
1651014527967003210,,314,,1651014527,950374739,"""atracsys""",,,0.0767567214966,0.00475385332108,1.2428112793,,-0.0358009651159,0.0324911768544,-0.0208336199314,0.998613325869
1651014527999171548,,315,,1651014527,989058773,"""atracsys""",,,0.081148979187,0.00489755630493,1.2438380127,,-0.0379921828603,0.0293226968306,-0.0114175130404,0.998782465749
1651014528036290811,,316,,1651014528,18886870,"""atracsys""",,,0.084944480896,0.00516138696671,1.24433630371,,-0.0390914659018,0.0258053403984,-0.00353033738139,0.998896129945
1651014528068243607,,317,,1651014528,48751160,"""atracsys""",,,0.0890185775757,0.00562336158752,1.24459484863,,-0.0392869721234,0.0207269540083,0.00482971674078,0.999001301819
1651014528105319461,,318,,1651014528,90514157,"""atracsys""",,,0.0952741699219,0.00653539085388,1.2442532959,,-0.0384167442883,0.0188132763969,0.0172979625061,0.998934930255
1651014528134865826,,319,,1651014528,120306734,"""atracsys""",,,0.0997488021851,0.00749878072739,1.24289782715,,-0.0380041340914,0.050653848964,0.0272621396453,0.997620493534
1651014528167589682,,320,,1651014528,150289554,"""atracsys""",,,0.104081481934,0.00863348388672,1.24124841309,,-0.0375629160649,0.0826148621182,0.0377695509796,0.99515690869
1651014528199414439,,321,,1651014528,141329706,"""atracsys""",,,0.102789375305,0.00828841686249,1.24174291992,,-0.0377265066814,0.0741616262139,0.0345791591561,0.995932249525
1651014528231317297,,322,,1651014528,129307150,"""atracsys""",,,0.101058456421,0.00782409334183,1.24241333008,,-0.0381106572127,0.0616524037536,0.0303180559317,0.996908909782
1651014528267006540,,323,,1651014528,111369652,"""atracsys""",,,0.0984295120239,0.00719504404068,1.24337036133,,-0.0379686637974,0.0394989678865,0.0242376217642,0.998203761662
1651014528299027481,,324,,1651014528,99684440,"""atracsys""",,,0.0966431503296,0.00680328559875,1.24392980957,,-0.0382586700507,0.025808978649,0.0201989853713,0.998730279794
1651014528331521167,,325,,1651014528,78566414,"""atracsys""",,,0.0934391174316,0.00624008607864,1.24446630859,,-0.0385047630202,0.0168477278861,0.0136478877211,0.999023159116
1651014528367478414,,326,,1651014528,69636789,"""atracsys""",,,0.0920846939087,0.00603693819046,1.24456005859,,-0.0388911368237,0.0169453888238,0.0109346400281,0.999039922586
1651014528399562884,,327,,1651014528,60629280,"""atracsys""",,,0.0907514877319,0.00584914541245,1.24459606934,,-0.0390644649815,0.0184628508471,0.00828718755685,0.999031737853
1651014528431914970,,328,,1651014528,39741732,"""atracsys""",,,0.0877638778687,0.00546215248108,1.24454003906,,-0.0393531809867,0.0223559811035,0.00228856929133,0.9989726221
1651014528466839689,,329,,1651014528,30807967,"""atracsys""",,,0.0865363235474,0.00531047058105,1.24446740723,,-0.0393613435015,0.0239602446524,-0.000222341055365,0.998937706706
1651014528498878492,,330,,1651014528,9896682,"""atracsys""",,,0.0837802352905,0.00507575511932,1.2442043457,,-0.0387246639189,0.0270494398598,-0.00591706150205,0.998866215562
1651014528647957791,,331,,1651014528,642730066,"""atracsys""",,,0.134162139893,0.0316853523254,1.19838342285,,0.125219455136,-0.129497351341,0.0601354640194,0.981801532907
1651014528660292995,,332,,1651014528,651695168,"""atracsys""",,,0.133465286255,0.0317676925659,1.19784057617,,0.120628375209,-0.128490462189,0.0594228417742,0.982551740163
1651014528668769709,,333,,1651014528,663597969,"""atracsys""",,,0.13252230835,0.0318942451477,1.19708361816,,0.115616620219,-0.126732179814,0.0583265165371,0.983447898568
1651014528678338331,,334,,1651014528,672547821,"""atracsys""",,,0.131786315918,0.032014339447,1.19645678711,,0.112987297264,-0.125289949472,0.0572402877048,0.984001955629
1651014528690334560,,335,,1651014528,684561311,"""atracsys""",,,0.130743301392,0.0321712684631,1.19548706055,,0.111805312329,-0.123830243512,0.0552978236974,0.984432726813
1651014528717951521,,336,,1651014528,693561378,"""atracsys""",,,0.129895584106,0.0322875213623,1.19466186523,,0.112668877242,-0.122733093022,0.0535171920839,0.98457006969
1651014528744077013,,337,,1651014528,723309670,"""atracsys""",,,0.126687988281,0.0326455574036,1.19177441406,,0.117613343148,-0.1172661384,0.0468129550771,0.984999645449
1651014528777234311,,338,,1651014528,762090221,"""atracsys""",,,0.122216407776,0.0329842910767,1.1881965332,,0.123814679053,-0.11066533912,0.0374429842811,0.98540404449
1651014528805704521,,339,,1651014528,782974981,"""atracsys""",,,0.119672813416,0.0331731452942,1.18642175293,,0.126934971921,-0.107371930652,0.0320717567625,0.98556084735
1651014528838679194,,340,,1651014528,824801190,"""atracsys""",,,0.114223297119,0.0334160614014,1.18304321289,,0.132865055943,-0.101421062257,0.020119469179,0.985726053222
1651014528866903825,,341,,1651014528,854697559,"""atracsys""",,,0.109651092529,0.0334166908264,1.1808717041,,0.136031855962,-0.0940413494799,0.0113421059551,0.986165764658
1651014528900985654,,342,,1651014528,884561160,"""atracsys""",,,0.104275360107,0.0331869316101,1.17907543945,,0.13725683855,-0.0826861283663,0.00244104806205,0.987075278655
1651014528932707261,,343,,1651014528,923306178,"""atracsys""",,,0.0970420532227,0.0323977851868,1.17781066895,,0.136823366543,-0.0697767335877,-0.0101751662694,0.98808250658
1651014528966421100,,344,,1651014528,956166759,"""atracsys""",,,0.0908388366699,0.0314455699921,1.17767077637,,0.134265489729,-0.0586848221708,-0.020687026388,0.988989846689
1651014529001865300,,345,,1651014528,986060555,"""atracsys""",,,0.085342666626,0.0302790546417,1.17834619141,,0.130508618446,-0.0484088255098,-0.0296755734807,0.989819906075
1651014529035571653,,346,,1651014529,24793139,"""atracsys""",,,0.0781737442017,0.0283551845551,1.18039038086,,0.122526921145,-0.0346983128213,-0.0411285332256,0.991005360448
