rosbagTimestamp,header,seq,stamp,secs,nsecs,frame_id,pose,position,x,y,z,orientation,x,y,z,w
1652217751013986175,,3632,,1652217750,981322399,"""atracsys""",,,0.363261260986,-0.142113937378,1.09971484375,,-0.00603381820943,-0.0691148977909,0.356924601129,0.931553301239
1652217751042368793,,3633,,1652217751,11247540,"""atracsys""",,,0.363263549805,-0.142115493774,1.09971777344,,-0.00594712995705,-0.0689625075447,0.356950722727,0.931555143694
1652217751075299593,,3634,,1652217751,40998985,"""atracsys""",,,0.36326385498,-0.142114135742,1.09971398926,,-0.00591164321011,-0.0689440533458,0.356959204089,0.931553485635
1652217751107960631,,3635,,1652217751,82827934,"""atracsys""",,,0.363265350342,-0.142110565186,1.09970776367,,-0.00591729594871,-0.0688953259892,0.356969774905,0.931553004112
1652217751140482334,,3636,,1652217751,112764713,"""atracsys""",,,0.363266876221,-0.142106079102,1.09970019531,,-0.00593900733616,-0.0690555279647,0.356944524209,0.93155067972
1652217751174215328,,3637,,1652217751,142468493,"""atracsys""",,,0.363263977051,-0.14211920166,1.09970031738,,-0.0059752178821,-0.0691191449118,0.35691505119,0.931557022845
1652217751207415065,,3638,,1652217751,184330169,"""atracsys""",,,0.363261047363,-0.142103012085,1.09970568848,,-0.00604522320761,-0.0691990099963,0.356900024037,0.931556399331
1652217751240399686,,3639,,1652217751,214132435,"""atracsys""",,,0.363261444092,-0.142112411499,1.09971276855,,-0.00605104177318,-0.0692455913702,0.356896137325,0.93155438925
1652217751272408472,,3640,,1652217751,243962419,"""atracsys""",,,0.363260223389,-0.142121337891,1.09969958496,,-0.00612651283001,-0.0692738421722,0.356895210229,0.931552150739
1652217751308015221,,3641,,1652217751,282894328,"""atracsys""",,,0.363262786865,-0.142095840454,1.09969470215,,-0.00603703225363,-0.0693330873281,0.356884161294,0.931552560332
1652217751339902477,,3642,,1652217751,312641123,"""atracsys""",,,0.363267486572,-0.14211050415,1.09969116211,,-0.00617037537226,-0.0692287879836,0.356893890887,0.931555716009
1652217751373883909,,3643,,1652217751,345457163,"""atracsys""",,,0.363268218994,-0.1421043396,1.0996907959,,-0.00601544036798,-0.0692115587683,0.356903239709,0.931554427876
1652217751406277185,,3644,,1652217751,375367427,"""atracsys""",,,0.363267120361,-0.142104202271,1.09968762207,,-0.00595993313192,-0.0689858165523,0.356957176497,0.931550863055
1652217751440325399,,3645,,1652217751,414145646,"""atracsys""",,,0.363264770508,-0.14210760498,1.09969677734,,-0.00597954259725,-0.0691500535377,0.3569195023,0.931552995832
1652217751473712218,,3646,,1652217751,443973951,"""atracsys""",,,0.36326184082,-0.142090011597,1.09969714355,,-0.006045508874,-0.0691636826927,0.356924867123,0.931549502736
1652217751508184656,,3647,,1652217751,473967697,"""atracsys""",,,0.363259399414,-0.142118209839,1.09968579102,,-0.00596080232959,-0.0692011191407,0.356906712196,0.931554224259
1652217751541157106,,3648,,1652217751,515712742,"""atracsys""",,,0.363258605957,-0.142088378906,1.09968640137,,-0.00599544099682,-0.069205466817,0.356914720273,0.931550610811
1652217751574624381,,3649,,1652217751,545505729,"""atracsys""",,,0.36325881958,-0.142104263306,1.09967736816,,-0.00586575789544,-0.0691416472193,0.35692720581,0.931551391635
1652217751607725031,,3650,,1652217751,575338015,"""atracsys""",,,0.363258239746,-0.142111251831,1.09966430664,,-0.00597892992027,-0.0691939353407,0.356900936799,0.931556854422
1652217751641498835,,3651,,1652217751,614245187,"""atracsys""",,,0.363260894775,-0.142102554321,1.09965991211,,-0.0059863759446,-0.0691675172479,0.356905461929,0.931557034811
1652217751684536702,,3652,,1652217751,655929982,"""atracsys""",,,0.363264373779,-0.142114578247,1.09967480469,,-0.00600372858443,-0.0691500755203,0.356903677508,0.93155890167
1652217751708950742,,3653,,1652217751,676874026,"""atracsys""",,,0.363263824463,-0.14209727478,1.09968847656,,-0.00590819973499,-0.0692595932958,0.356886106593,0.931558108136
1652217751742635589,,3654,,1652217751,715730961,"""atracsys""",,,0.363262664795,-0.142115402222,1.09970556641,,-0.00589524173044,-0.0691522203368,0.356908233561,0.931557689767
1652217751774401827,,3655,,1652217751,745498673,"""atracsys""",,,0.363259613037,-0.142113998413,1.09972595215,,-0.00599435969963,-0.0692169538655,0.356885089105,0.931561116687
1652217751808531131,,3656,,1652217751,775522963,"""atracsys""",,,0.363257720947,-0.142113739014,1.09974633789,,-0.00593568295557,-0.0692324048446,0.356890171622,0.931558397089
1652217751841293047,,3657,,1652217751,808155875,"""atracsys""",,,0.363260467529,-0.142123809814,1.09975646973,,-0.00588517665539,-0.0692278338696,0.356897208778,0.931556361193
1652217751874978629,,3658,,1652217751,846977860,"""atracsys""",,,0.363262695312,-0.142109237671,1.09975402832,,-0.0057973115023,-0.0691649828525,0.356924596711,0.931551087482
1652217751907351881,,3659,,1652217751,876842472,"""atracsys""",,,0.363266052246,-0.142128952026,1.09975134277,,-0.00587727351736,-0.0691606282823,0.356915730189,0.931554306895
1652217751941990746,,3660,,1652217751,906693446,"""atracsys""",,,0.363266937256,-0.142109283447,1.09974182129,,-0.00593262825719,-0.0691465184751,0.356916904505,0.93155455352
1652217751973189001,,3661,,1652217751,948486379,"""atracsys""",,,0.363267120361,-0.142119049072,1.09973132324,,-0.00598281661986,-0.0692608694092,0.356904386535,0.931550533651
1652217752007610338,,3662,,1652217751,978382247,"""atracsys""",,,0.363265777588,-0.1421222229,1.09972387695,,-0.00601079673007,-0.0691814076647,0.356910025007,0.931554097842
1652217752041056009,,3663,,1652217752,8860018,"""atracsys""",,,0.363259368896,-0.14211265564,1.09971789551,,-0.0061366353677,-0.0692804161026,0.356883148898,0.931556216062
1652217752074503386,,3664,,1652217752,47021097,"""atracsys""",,,0.363251983643,-0.142124298096,1.09972045898,,-0.00601985169873,-0.0691276047302,0.356916355561,0.931555607993
1652217752107323497,,3665,,1652217752,79837594,"""atracsys""",,,0.363249267578,-0.142104934692,1.09971704102,,-0.00593826912133,-0.0690451685462,0.356950032069,0.931549341831
1652217752139048088,,3666,,1652217752,109683254,"""atracsys""",,,0.363250396729,-0.14212399292,1.0997052002,,-0.00598805724131,-0.0690754836796,0.356940180061,0.931550550739
1652217752174613558,,3667,,1652217752,139520109,"""atracsys""",,,0.36325112915,-0.142120056152,1.09970812988,,-0.00599818780982,-0.0691308483103,0.356931378621,0.931549750958
1652217752206167011,,3668,,1652217752,172391011,"""atracsys""",,,0.363256866455,-0.142111312866,1.0997076416,,-0.00596514356217,-0.0691640466093,0.356927388317,0.931549027796
1652217752239601582,,3669,,1652217752,214155346,"""atracsys""",,,0.363261779785,-0.142121902466,1.09970336914,,-0.00599006602186,-0.0691126631065,0.356931843563,0.931550974428
1652217752272924720,,3670,,1652217752,244011809,"""atracsys""",,,0.363261932373,-0.142110397339,1.0997052002,,-0.00597393083008,-0.0691538144394,0.356911475584,0.931555828008
1652217752306722114,,3671,,1652217752,273882396,"""atracsys""",,,0.363263671875,-0.142116592407,1.09969824219,,-0.00593183784629,-0.0691473652373,0.356914075624,0.931555579556
1652217752340235348,,3672,,1652217752,315661495,"""atracsys""",,,0.363261383057,-0.142106933594,1.09969934082,,-0.00592950990901,-0.0691608014093,0.35692151533,0.931551746472
1652217752373847808,,3673,,1652217752,345485906,"""atracsys""",,,0.363258972168,-0.142111877441,1.09969018555,,-0.00595469096494,-0.0691977873086,0.356907454918,0.931554226286
1652217752406182581,,3674,,1652217752,375397661,"""atracsys""",,,0.363259063721,-0.142116195679,1.0996895752,,-0.00596072327988,-0.0692775568748,0.356883660325,0.931557374982
1652217752440257046,,3675,,1652217752,405203762,"""atracsys""",,,0.363260406494,-0.142105224609,1.09968115234,,-0.00590806755008,-0.0692323623275,0.356904834188,0.931552958279
1652217752473616460,,3676,,1652217752,447011736,"""atracsys""",,,0.363261871338,-0.142103988647,1.09968261719,,-0.00591353732866,-0.0691447758395,0.356921369685,0.931553093448
1652217752506803642,,3677,,1652217752,474072891,"""atracsys""",,,0.363261505127,-0.142110351563,1.09967883301,,-0.00593333018092,-0.069075332699,0.356936039719,0.93155249855
1652217752539954897,,3678,,1652217752,506752096,"""atracsys""",,,0.363260681152,-0.142111434937,1.09968603516,,-0.00605345488622,-0.0691420702605,0.356926856785,0.931550293172
1652217752573268524,,3679,,1652217752,545500761,"""atracsys""",,,0.363261627197,-0.142112030029,1.09968713379,,-0.00604129231853,-0.0692157568971,0.356904512707,0.931553460942
1652217752606779220,,3680,,1652217752,575371886,"""atracsys""",,,0.363261016846,-0.142115997314,1.09969274902,,-0.00597545124016,-0.0692109160272,0.356911663476,0.931551505586
1652217752640753644,,3681,,1652217752,605180055,"""atracsys""",,,0.363261932373,-0.142113693237,1.09970483398,,-0.00596167278904,-0.0690894644153,0.35694082836,0.931549434767
1652217752674638901,,3682,,1652217752,647411793,"""atracsys""",,,0.363265869141,-0.14210736084,1.09969958496,,-0.00592714836261,-0.0690246183453,0.356956047632,0.931548630525
1652217752707954535,,3683,,1652217752,676898221,"""atracsys""",,,0.363268249512,-0.142109268188,1.09970568848,,-0.00607965515266,-0.0690193089623,0.356958478816,0.931547109482
1652217752744708854,,3684,,1652217752,718680306,"""atracsys""",,,0.363268188477,-0.142110794067,1.09970043945,,-0.00601861692653,-0.0690319852125,0.356955050489,0.93154788025
1652217752774618296,,3685,,1652217752,748554962,"""atracsys""",,,0.36326651001,-0.142104019165,1.09969555664,,-0.00608384470101,-0.0690362750393,0.356950513442,0.931548877148
1652217752808117978,,3686,,1652217752,778365756,"""atracsys""",,,0.363263824463,-0.142102767944,1.09969128418,,-0.00606553568577,-0.0690045111949,0.356947976078,0.931552322248
1652217752841103564,,3687,,1652217752,808274081,"""atracsys""",,,0.363262817383,-0.14211050415,1.09968518066,,-0.00613721495624,-0.0690310553508,0.356945169491,0.931550961551
1652217752873273254,,3688,,1652217752,846985730,"""atracsys""",,,0.363259246826,-0.142100448608,1.09968664551,,-0.00612422794112,-0.0690148406887,0.356950818161,0.931550084006
1652217752907204337,,3689,,1652217752,876919464,"""atracsys""",,,0.363260772705,-0.142105773926,1.0996842041,,-0.00610381671917,-0.0689873084576,0.356955615857,0.931550418926
1652217752940080821,,3690,,1652217752,909754584,"""atracsys""",,,0.363260101318,-0.142103027344,1.09967883301,,-0.00604575343474,-0.0690184949924,0.356949139421,0.931550969127
1652217752973979415,,3691,,1652217752,948581432,"""atracsys""",,,0.363262207031,-0.14211579895,1.09968859863,,-0.00624619429595,-0.06912315748,0.356931281766,0.931548728867
1652217753008742189,,3692,,1652217752,978399260,"""atracsys""",,,0.363262237549,-0.142113647461,1.09969665527,,-0.00640694361802,-0.069121284844,0.356919855335,0.931552154161
1652217753042471552,,3693,,1652217753,8189355,"""atracsys""",,,0.363264373779,-0.14209765625,1.09970056152,,-0.00635668201495,-0.0692211396241,0.356893355218,0.931555236915
1652217753076562126,,3694,,1652217753,50049013,"""atracsys""",,,0.363264160156,-0.142119186401,1.09969787598,,-0.00618180533808,-0.0692171140585,0.356910051338,0.931550316224
1652217753109344764,,3695,,1652217753,79933705,"""atracsys""",,,0.363261657715,-0.142107406616,1.09969836426,,-0.00628782082162,-0.0691439304192,0.356924875457,0.931549361803
1652217753142728740,,3696,,1652217753,109695185,"""atracsys""",,,0.363257598877,-0.142100509644,1.09969433594,,-0.00615853315355,-0.0691042230386,0.356939494615,0.93154757045
1652217753175295551,,3697,,1652217753,148508737,"""atracsys""",,,0.363257263184,-0.142108886719,1.09969104004,,-0.00624540847451,-0.0690182141538,0.356961735723,0.931544846058
1652217753209809227,,3698,,1652217753,181388591,"""atracsys""",,,0.363254760742,-0.1420987854,1.09969750977,,-0.00621749105987,-0.0690315311263,0.356933034394,0.931555043716
1652217753242115174,,3699,,1652217753,211238224,"""atracsys""",,,0.363259399414,-0.14212437439,1.09970666504,,-0.00612841126758,-0.0690755017818,0.356943528918,0.931548353438
1652217753276434448,,3700,,1652217753,250052087,"""atracsys""",,,0.363259155273,-0.142096343994,1.09971582031,,-0.00621144511311,-0.0690689611834,0.356937105649,0.931550749644
1652217753310313433,,3701,,1652217753,279928510,"""atracsys""",,,0.363261169434,-0.142123077393,1.0997121582,,-0.00626558974128,-0.0689896056587,0.356958423888,0.931548098765
1652217753344117330,,3702,,1652217753,309756106,"""atracsys""",,,0.363260894775,-0.14211076355,1.09971386719,,-0.0061690311151,-0.0689957542581,0.356944317963,0.931553692936
1652217753376620164,,3703,,1652217753,351532508,"""atracsys""",,,0.363261566162,-0.142117172241,1.09972155762,,-0.0062008224681,-0.0690270861925,0.356952693313,0.931547951481
1652217753408912577,,3704,,1652217753,381380506,"""atracsys""",,,0.363258605957,-0.142114837646,1.09970922852,,-0.00617617723867,-0.0690719242034,0.356929419703,0.931553709386
1652217753442603967,,3705,,1652217753,411420756,"""atracsys""",,,0.363258605957,-0.142098419189,1.09970922852,,-0.00612614004445,-0.069131178752,0.356911853973,0.931556374583
1652217753476466816,,3706,,1652217753,452988588,"""atracsys""",,,0.363259429932,-0.142117645264,1.09969165039,,-0.0062263984166,-0.0690854352919,0.356915278943,0.931557791149
1652217753509123351,,3707,,1652217753,482836039,"""atracsys""",,,0.363258270264,-0.142103500366,1.09969165039,,-0.00612034448333,-0.0690139440021,0.356934647312,0.931556372135
1652217753542186512,,3708,,1652217753,512747654,"""atracsys""",,,0.363259796143,-0.142114837646,1.09968762207,,-0.00611086374435,-0.0691334930266,0.356917174439,0.931554264698
1652217753576638980,,3709,,1652217753,551521643,"""atracsys""",,,0.363258514404,-0.142099914551,1.09970031738,,-0.00616671050021,-0.0692507799234,0.356888216998,0.931556279422
1652217753609556923,,3710,,1652217753,581367158,"""atracsys""",,,0.363256317139,-0.142119476318,1.09970800781,,-0.0061308926375,-0.0692101594404,0.356905864173,0.931552773655
1652217753642622392,,3711,,1652217753,611239633,"""atracsys""",,,0.363254699707,-0.142125015259,1.0996998291,,-0.00616422051925,-0.0692905640193,0.35688502148,0.931554561776
1652217753675963413,,3712,,1652217753,644073681,"""atracsys""",,,0.363255584717,-0.142091949463,1.0997175293,,-0.00599280428439,-0.0691327415656,0.356929486452,0.931550370104
1652217753709228930,,3713,,1652217753,682931117,"""atracsys""",,,0.363258636475,-0.142131164551,1.09971850586,,-0.0060794361274,-0.0691615082212,0.356910073101,0.931555111604
1652217753741963368,,3714,,1652217753,712980589,"""atracsys""",,,0.363257232666,-0.142102737427,1.09972375488,,-0.00598966651601,-0.0690614032707,0.356922085672,0.931558517342
1652217753775477181,,3715,,1652217753,742574893,"""atracsys""",,,0.363261566162,-0.142105728149,1.09972338867,,-0.00592738250441,-0.0691375723924,0.356910926351,0.931557541364
1652217753809331929,,3716,,1652217753,784309422,"""atracsys""",,,0.363265441895,-0.142105667114,1.09972583008,,-0.00593080426186,-0.069121732632,0.356936731294,0.931548807896
1652217753843201242,,3717,,1652217753,814293556,"""atracsys""",,,0.363265441895,-0.142101425171,1.09974230957,,-0.0059817225122,-0.0691110713069,0.356930040491,0.931551836998
1652217753876455671,,3718,,1652217753,844045757,"""atracsys""",,,0.363265228271,-0.142128341675,1.09974353027,,-0.00581288781297,-0.0688645726145,0.356992080819,0.931547387526
1652217753910478630,,3719,,1652217753,882883607,"""atracsys""",,,0.363255981445,-0.142084945679,1.09973095703,,-0.00594431040546,-0.0689605759032,0.356966601379,0.931549220194
1652217753943056414,,3720,,1652217753,915730003,"""atracsys""",,,0.363252471924,-0.142119659424,1.09970458984,,-0.00583738302756,-0.0692398215451,0.35691916222,0.931547359887
1652217753976342262,,3721,,1652217753,945533315,"""atracsys""",,,0.36324987793,-0.142110549927,1.09970361328,,-0.00604245446831,-0.0692382198046,0.356900726575,0.931553234675
1652217754009920912,,3722,,1652217753,984363467,"""atracsys""",,,0.363254180908,-0.142110931396,1.09972070313,,-0.00589183433429,-0.0693276377051,0.356890677416,0.931551399179
1652217754041534744,,3723,,1652217754,14250124,"""atracsys""",,,0.363259277344,-0.14210824585,1.09971496582,,-0.00594050756422,-0.0692657458402,0.356898654198,0.931552638048
1652217754075738446,,3724,,1652217754,44044566,"""atracsys""",,,0.363262237549,-0.142104507446,1.09971252441,,-0.00597779950266,-0.0693135453955,0.356887227189,0.931553221994
1652217754107963896,,3725,,1652217754,73996394,"""atracsys""",,,0.363265930176,-0.142120071411,1.09971557617,,-0.00595861251815,-0.06915712162,0.356919618551,0.931552560707
1652217754141799141,,3726,,1652217754,115690364,"""atracsys""",,,0.363264434814,-0.142098068237,1.09973059082,,-0.00596756915468,-0.0690685443311,0.356939811002,0.931551338158
1652217754175300319,,3727,,1652217754,145621585,"""atracsys""",,,0.36326184082,-0.142121337891,1.09972351074,,-0.0059997417154,-0.0691136434114,0.356916562179,0.931556694483
1652217754208627110,,3728,,1652217754,175828570,"""atracsys""",,,0.363259368896,-0.142113037109,1.09973205566,,-0.0060045016162,-0.0691306775922,0.356923743673,0.931552648313
1652217754241427460,,3729,,1652217754,217209524,"""atracsys""",,,0.363258087158,-0.142115203857,1.09975012207,,-0.00607917280953,-0.0692084832054,0.356888428075,0.931559917244
1652217754275850312,,3730,,1652217754,247045384,"""atracsys""",,,0.363256469727,-0.142110656738,1.09974914551,,-0.00593978736496,-0.0690396308467,0.356934156922,0.931555825445
1652217754308460593,,3731,,1652217754,276889226,"""atracsys""",,,0.363256408691,-0.142095550537,1.09974487305,,-0.00602812796506,-0.0690866735335,0.356922222013,0.931556343249
1652217754342296206,,3732,,1652217754,315728668,"""atracsys""",,,0.36325869751,-0.14212689209,1.09973132324,,-0.0059475362848,-0.069153252396,0.356912390016,0.93155568827
1652217754374696411,,3733,,1652217754,345510480,"""atracsys""",,,0.363257598877,-0.142098449707,1.09972717285,,-0.00601093654702,-0.0691679735663,0.356899227512,0.93155923133
1652217754408741674,,3734,,1652217754,378423342,"""atracsys""",,,0.363259307861,-0.142109298706,1.09972058105,,-0.00607477734958,-0.0692777101819,0.356878114606,0.931558751377
1652217754442073693,,3735,,1652217754,408314220,"""atracsys""",,,0.36325769043,-0.142116638184,1.09971850586,,-0.00604863214473,-0.0693145686106,0.35687745749,0.931556431443
1652217754476020039,,3736,,1652217754,447035062,"""atracsys""",,,0.363256317139,-0.14210357666,1.09972668457,,-0.00599642255659,-0.0693180844521,0.356889534406,0.931551880636
1652217754509155395,,3737,,1652217754,476903982,"""atracsys""",,,0.363252471924,-0.142115203857,1.09972106934,,-0.00600759376878,-0.0693246946702,0.356875486128,0.931556698718
1652217754542557237,,3738,,1652217754,506752077,"""atracsys""",,,0.363251739502,-0.142102233887,1.09971862793,,-0.00597524183034,-0.0692413873114,0.356901537111,0.931553122251
1652217754575446009,,3739,,1652217754,548567476,"""atracsys""",,,0.363253875732,-0.1421146698,1.09971899414,,-0.00579030472612,-0.0692291951066,0.356893573784,0.93155824719
1652217754608431027,,3740,,1652217754,578391405,"""atracsys""",,,0.363254180908,-0.142107055664,1.09972265625,,-0.0057953912408,-0.0692083516086,0.356900358949,0.9315571648
1652217754642142638,,3741,,1652217754,608451339,"""atracsys""",,,0.363253540039,-0.142101913452,1.09972131348,,-0.00580041808967,-0.0690409829409,0.356933600727,0.931556816569
1652217754675569516,,3742,,1652217754,650109708,"""atracsys""",,,0.363255615234,-0.142103317261,1.09971191406,,-0.00593585421072,-0.0692248335674,0.356892533222,0.931558053898
1652217754708939874,,3743,,1652217754,680042975,"""atracsys""",,,0.363252655029,-0.142106887817,1.09971862793,,-0.00600961729854,-0.0691050297989,0.356933047506,0.931550953494
1652217754742535375,,3744,,1652217754,709747208,"""atracsys""",,,0.363250152588,-0.142122070313,1.09971606445,,-0.00608230362941,-0.069101614428,0.356942505435,0.931547111143
1652217754775751074,,3745,,1652217754,748577348,"""atracsys""",,,0.363250671387,-0.142095962524,1.09972155762,,-0.0062370907683,-0.0691125567351,0.35694218514,0.931545398608
1652217754808787074,,3746,,1652217754,778634851,"""atracsys""",,,0.363250946045,-0.142126098633,1.09972338867,,-0.00623254186019,-0.0691395461043,0.356932003281,0.931547327633
1652217754842511835,,3747,,1652217754,808254580,"""atracsys""",,,0.363251586914,-0.142114227295,1.09973303223,,-0.00617082201558,-0.069105414075,0.356933444506,0.93154971896
1652217754875417543,,3748,,1652217754,850004326,"""atracsys""",,,0.363255096436,-0.142112457275,1.09973852539,,-0.00602842293919,-0.0689839475692,0.356965520395,0.931547363446
1652217754908560782,,3749,,1652217754,879903155,"""atracsys""",,,0.363257049561,-0.142122268677,1.09973913574,,-0.0060655944865,-0.0690454724809,0.356951985675,0.931547750368
1652217754942747895,,3750,,1652217754,909755902,"""atracsys""",,,0.363255981445,-0.142104049683,1.09975427246,,-0.0058789110324,-0.0689817169768,0.3569671782,0.931547848914
1652217754976016914,,3751,,1652217754,951526170,"""atracsys""",,,0.363254760742,-0.142134597778,1.09976794434,,-0.0057326000458,-0.0688738267462,0.356995765458,0.931545788854
1652217755008377137,,3752,,1652217754,981398138,"""atracsys""",,,0.363250793457,-0.142098678589,1.09977148437,,-0.00597345615747,-0.069252964071,0.35691432983,0.931547371823
1652217755042901647,,3753,,1652217755,11243541,"""atracsys""",,,0.36325177002,-0.14211479187,1.09974414062,,-0.00617877997905,-0.0695139993322,0.356838208119,0.931555752385
1652217755076568461,,3754,,1652217755,50022740,"""atracsys""",,,0.363252807617,-0.142107681274,1.09973852539,,-0.00599057100267,-0.0694020570822,0.356872064307,0.931552358834
1652217755109063130,,3755,,1652217755,79891572,"""atracsys""",,,0.363255493164,-0.142099624634,1.09976086426,,-0.00596252151033,-0.0695174291692,0.356848286078,0.931553045243
1652217755144793922,,3756,,1652217755,109762352,"""atracsys""",,,0.363258728027,-0.14212361145,1.09976757813,,-0.00586734419691,-0.0696032012369,0.356822018721,0.931557306668
1652217755176322156,,3757,,1652217755,151515178,"""atracsys""",,,0.363260467529,-0.142095809937,1.09977124023,,-0.00588547508665,-0.0695071291576,0.356835651582,0.931559143554
1652217755210574692,,3758,,1652217755,181364116,"""atracsys""",,,0.363260192871,-0.142127761841,1.09975878906,,-0.00583786929565,-0.0694824932988,0.3568392562,0.93155990019
1652217755243117432,,3759,,1652217755,211266923,"""atracsys""",,,0.363260009766,-0.14210496521,1.09975878906,,-0.00595796614265,-0.0693299517915,0.356853195292,0.931565165425
1652217755276827773,,3760,,1652217755,253070203,"""atracsys""",,,0.363259094238,-0.142113861084,1.09973754883,,-0.00599964665074,-0.0692937165241,0.356876733128,0.931558577032
1652217755308645266,,3761,,1652217755,282844878,"""atracsys""",,,0.363258148193,-0.142121566772,1.09973937988,,-0.00593028686821,-0.069326051207,0.356872701095,0.931558160039
1652217755342874297,,3762,,1652217755,312780726,"""atracsys""",,,0.363257141113,-0.142101455688,1.09975683594,,-0.00587035573771,-0.0692392821902,0.356885438663,0.931560113141
1652217755375478060,,3763,,1652217755,342568141,"""atracsys""",,,0.363257446289,-0.14213092041,1.09975036621,,-0.00591501804343,-0.0695037306854,0.356837283942,0.931558584723
1652217755409595538,,3764,,1652217755,384342992,"""atracsys""",,,0.363259368896,-0.142086151123,1.09972558594,,-0.00590521752492,-0.0696964758412,0.356803960478,0.931557010305
1652217755442688114,,3765,,1652217755,414183887,"""atracsys""",,,0.363261352539,-0.142123046875,1.09970556641,,-0.00587503718823,-0.0695556501445,0.356836925057,0.931555100027
1652217755477966384,,3766,,1652217755,452983959,"""atracsys""",,,0.363260742187,-0.142095703125,1.09970166016,,-0.00587794344672,-0.0693512637771,0.356879149839,0.931554144644
1652217755509746529,,3767,,1652217755,482864427,"""atracsys""",,,0.36325958252,-0.142087158203,1.09969519043,,-0.00584655291977,-0.069356306445,0.356878950651,0.931554043069
1652217755543247189,,3768,,1652217755,512757805,"""atracsys""",,,0.363260314941,-0.142134994507,1.09969104004,,-0.00589136436771,-0.0693659703208,0.356870383601,0.931556323201
1652217755575901853,,3769,,1652217755,545583251,"""atracsys""",,,0.363257049561,-0.142089859009,1.09969238281,,-0.005836497009,-0.0692544186752,0.356880823818,0.931560968691
1652217755609923309,,3770,,1652217755,584316013,"""atracsys""",,,0.363258666992,-0.142126861572,1.09968737793,,-0.00584430202363,-0.069229432588,0.356898028208,0.931556185777
1652217755642970493,,3771,,1652217755,614260602,"""atracsys""",,,0.363257629395,-0.142092712402,1.09968395996,,-0.00583770555987,-0.0692007275946,0.35689450086,0.931559711318
1652217755676981346,,3772,,1652217755,644062495,"""atracsys""",,,0.363257659912,-0.142097961426,1.09968127441,,-0.00594506555308,-0.0691700055724,0.356911893363,0.931554650517
1652217755710436738,,3773,,1652217755,674061995,"""atracsys""",,,0.363258056641,-0.142126525879,1.09968432617,,-0.00585973240749,-0.0691148491514,0.356934582495,0.931550591746
1652217755745159024,,3774,,1652217755,715750543,"""atracsys""",,,0.363254425049,-0.14208996582,1.09969274902,,-0.0058156370373,-0.0689405856658,0.356975243098,0.931548200486
1652217755776932953,,3775,,1652217755,745569487,"""atracsys""",,,0.36325302124,-0.142124267578,1.09967504883,,-0.00573109723461,-0.0687854697976,0.356999168636,0.931551022361
1652217755810250806,,3776,,1652217755,784392154,"""atracsys""",,,0.363252685547,-0.142094009399,1.09970349121,,-0.00597056822619,-0.0689791551998,0.356954129518,0.931552455787
1652217755843036228,,3777,,1652217755,817225016,"""atracsys""",,,0.363254394531,-0.142118209839,1.0997043457,,-0.00589986339356,-0.0690503533228,0.356956638225,0.931546670192
1652217755877115215,,3778,,1652217755,847051645,"""atracsys""",,,0.363255950928,-0.142107955933,1.09971411133,,-0.00596222128574,-0.0690553584696,0.356937482246,0.931553242253
1652217755909988497,,3779,,1652217755,877144818,"""atracsys""",,,0.3632578125,-0.142101745605,1.09971582031,,-0.00592658696669,-0.0690051242437,0.356964940424,0.931546670706
1652217755943330597,,3780,,1652217755,915820525,"""atracsys""",,,0.363260803223,-0.142128265381,1.09971618652,,-0.0060994952892,-0.0689430583211,0.356956869636,0.931553242754
1652217755976401604,,3781,,1652217755,945677445,"""atracsys""",,,0.363259155273,-0.142095977783,1.09972558594,,-0.00598794917724,-0.0689302767158,0.356969450344,0.931550091481
1652217756010983889,,3782,,1652217755,975500530,"""atracsys""",,,0.363262054443,-0.142130218506,1.09971630859,,-0.00593700879045,-0.0689563720077,0.356957141016,0.931553203077
1652217756043040310,,3783,,1652217756,17271506,"""atracsys""",,,0.363254486084,-0.142095275879,1.09971484375,,-0.00600349674665,-0.0689311826329,0.356959850996,0.931553602786
1652217756078112476,,3784,,1652217756,47205167,"""atracsys""",,,0.363251708984,-0.142120651245,1.09971252441,,-0.00603806694967,-0.0690202346131,0.356947185563,0.931551638762
1652217756110288956,,3785,,1652217756,77010319,"""atracsys""",,,0.363247619629,-0.142116012573,1.09970629883,,-0.00599169300041,-0.0691905792321,0.35689458312,0.931559455913
1652217756143481375,,3786,,1652217756,118696655,"""atracsys""",,,0.363248809814,-0.142098953247,1.09970422363,,-0.0059125821852,-0.0691134202534,0.356904718878,0.93156180587
1652217756177107759,,3787,,1652217756,148629942,"""atracsys""",,,0.363250701904,-0.14212953186,1.0997052002,,-0.00585428844711,-0.069159365019,0.356889815877,0.931564473807
1652217756210765501,,3788,,1652217756,178427000,"""atracsys""",,,0.363253479004,-0.142095993042,1.09971520996,,-0.00586203517898,-0.069119050347,0.356921483506,0.931555284476
1652217756243820019,,3789,,1652217756,217210658,"""atracsys""",,,0.363259094238,-0.142122314453,1.09972131348,,-0.0059084288998,-0.0690865999602,0.356919283251,0.93155824156
1652217756277603812,,3790,,1652217756,247063509,"""atracsys""",,,0.363261016846,-0.142111907959,1.09972741699,,-0.00590966011725,-0.0692265584574,0.35688700229,0.931560211214
1652217756310262156,,3791,,1652217756,276966156,"""atracsys""",,,0.363258605957,-0.142117950439,1.09973742676,,-0.00598317896613,-0.0692577848416,0.35689783638,0.931553270187
1652217756344499949,,3792,,1652217756,318779285,"""atracsys""",,,0.363253295898,-0.142117370605,1.09972302246,,-0.0060999600976,-0.0692971764656,0.356889062969,0.931552944579
1652217756377426554,,3793,,1652217756,348595858,"""atracsys""",,,0.363250793457,-0.142107315063,1.09971313477,,-0.00600581625916,-0.069224792181,0.35689329454,0.931557316879
1652217756410935347,,3794,,1652217756,378417199,"""atracsys""",,,0.363249755859,-0.142130874634,1.09971179199,,-0.00593746413328,-0.0691391866198,0.35692357717,0.931552510304
1652217756443872122,,3795,,1652217756,420274336,"""atracsys""",,,0.363249755859,-0.142102218628,1.09971228027,,-0.00598097623391,-0.0689954554006,0.356946137752,0.931554244154
1652217756477842116,,3796,,1652217756,450093314,"""atracsys""",,,0.363253723145,-0.142119125366,1.09971228027,,-0.00589383271021,-0.0690202045536,0.356948889364,0.931551911855
1652217756510329457,,3797,,1652217756,479906858,"""atracsys""",,,0.363254882813,-0.142108230591,1.09970715332,,-0.00585840938026,-0.0689343405123,0.356970623074,0.931550165047
1652217756544457775,,3798,,1652217756,518774882,"""atracsys""",,,0.363256835938,-0.142109909058,1.09970727539,,-0.00589412631753,-0.0689826921135,0.35696430142,0.931548782928
1652217756577374577,,3799,,1652217756,548589047,"""atracsys""",,,0.363256408691,-0.142116363525,1.09970715332,,-0.00588442166879,-0.0689488344286,0.356953199343,0.931555605045
1652217756611228899,,3800,,1652217756,581451201,"""atracsys""",,,0.363253204346,-0.142094284058,1.09970849609,,-0.00600985859809,-0.0690545019191,0.356938526154,0.931552599648
1652217756644032897,,3801,,1652217756,611334881,"""atracsys""",,,0.363255187988,-0.142118606567,1.09970776367,,-0.00597081702917,-0.0690465729902,0.356941020647,0.931552482624
1652217756678200034,,3802,,1652217756,650088796,"""atracsys""",,,0.363251861572,-0.142095352173,1.09970471191,,-0.00593440026785,-0.0690584927575,0.35693734378,0.931553240608
1652217756710625424,,3803,,1652217756,679939634,"""atracsys""",,,0.363253051758,-0.142105636597,1.09971008301,,-0.00599898386145,-0.0691078228404,0.356927408757,0.931552975355
1652217756745054583,,3804,,1652217756,709901644,"""atracsys""",,,0.363254669189,-0.14211730957,1.09969958496,,-0.00586690068052,-0.0690398852274,0.35694652023,0.931551531274
1652217756777124487,,3805,,1652217756,751530062,"""atracsys""",,,0.363257476807,-0.142088394165,1.09970288086,,-0.00598164958331,-0.0691333037757,0.356924554003,0.931552289958
1652217756810968396,,3806,,1652217756,781394130,"""atracsys""",,,0.363259429932,-0.142115432739,1.09969677734,,-0.00596304880145,-0.0690417671192,0.356945265771,0.931551261974
1652217756843981965,,3807,,1652217756,811264957,"""atracsys""",,,0.363257904053,-0.142101928711,1.0997076416,,-0.00585341942423,-0.0690138155386,0.356950301564,0.931552098897
1652217756878337750,,3808,,1652217756,853084743,"""atracsys""",,,0.363257843018,-0.142103210449,1.09970251465,,-0.00595658403022,-0.0691004845549,0.356942027555,0.931548190437
1652217756910926076,,3809,,1652217756,882979316,"""atracsys""",,,0.363253387451,-0.142103118896,1.09971105957,,-0.00605761278629,-0.0691347482557,0.356920581913,0.931553213787
1652217756945075770,,3810,,1652217756,912845602,"""atracsys""",,,0.363251495361,-0.142100524902,1.0997097168,,-0.00598427163685,-0.0691241174777,0.356925344645,0.931552651881
1652217756977625364,,3811,,1652217756,951579381,"""atracsys""",,,0.363251922607,-0.142108657837,1.0997010498,,-0.00600662641037,-0.0691111065695,0.356925593067,0.931553378182
1652217757011540287,,3812,,1652217756,984384194,"""atracsys""",,,0.363253662109,-0.142086853027,1.09969799805,,-0.00605979793359,-0.0691624834846,0.356916656133,0.931552644944
1652217757043957113,,3813,,1652217757,14254233,"""atracsys""",,,0.363255859375,-0.142113388062,1.09969006348,,-0.00594320790917,-0.0692415174596,0.356899254254,0.931554192118
1652217757078646545,,3814,,1652217757,53060608,"""atracsys""",,,0.363256958008,-0.142095825195,1.09969213867,,-0.00574650725848,-0.069535783973,0.356847556264,0.931553312479
1652217757111032035,,3815,,1652217757,82921660,"""atracsys""",,,0.363258270264,-0.142103424072,1.09969470215,,-0.00569134356108,-0.0696671511079,0.356815818156,0.93155599326
1652217757144583805,,3816,,1652217757,112763514,"""atracsys""",,,0.363255554199,-0.142123504639,1.0997019043,,-0.00568320095084,-0.0695497405675,0.35683858757,0.931556094519
1652217757177969357,,3817,,1652217757,142619120,"""atracsys""",,,0.363249786377,-0.142107040405,1.09971264648,,-0.00580913578293,-0.0693070996073,0.356888094699,0.931554436277
1652217757211856148,,3818,,1652217757,184400857,"""atracsys""",,,0.363249633789,-0.142126159668,1.09973034668,,-0.00602597203011,-0.0692535416415,0.356891809578,0.931555618784
1652217757244161777,,3819,,1652217757,214322838,"""atracsys""",,,0.363249847412,-0.142097366333,1.09973022461,,-0.00604864781636,-0.0692048348673,0.356902630079,0.931554945955
1652217757279235005,,3820,,1652217757,256187966,"""atracsys""",,,0.363251678467,-0.142120941162,1.09972998047,,-0.00607495863269,-0.0691578375476,0.356911039618,0.931555043023
1652217757309977026,,3821,,1652217757,285945598,"""atracsys""",,,0.363252746582,-0.142110473633,1.09972509766,,-0.0060554678344,-0.0692451826784,0.356890982032,0.931556365943
1652217757344272046,,3822,,1652217757,315768154,"""atracsys""",,,0.363254180908,-0.142102264404,1.09972265625,,-0.00599507968643,-0.0692699975653,0.35688460813,0.931557353541
1652217757377763943,,3823,,1652217757,345592929,"""atracsys""",,,0.363257141113,-0.142130615234,1.09971398926,,-0.00594832090207,-0.0691288111052,0.356916209874,0.931556033786
1652217757410492350,,3824,,1652217757,384406751,"""atracsys""",,,0.363255249023,-0.142101226807,1.09971496582,,-0.00603003784953,-0.0690815033867,0.356929006532,0.931554114815
1652217757443471106,,3825,,1652217757,414247598,"""atracsys""",,,0.36325289917,-0.142118896484,1.09970776367,,-0.00592059164513,-0.069000443699,0.356968943731,0.931545521472
1652217757477417431,,3826,,1652217757,447137530,"""atracsys""",,,0.36325213623,-0.142107940674,1.09971337891,,-0.00591676391661,-0.0689906202693,0.356966129855,0.931547351644
1652217757511457767,,3827,,1652217757,485902921,"""atracsys""",,,0.363250854492,-0.14210357666,1.09971325684,,-0.00594312441704,-0.0690678107511,0.356941274249,0.931550988152
1652217757545021702,,3828,,1652217757,515798144,"""atracsys""",,,0.363251159668,-0.142127990723,1.09972705078,,-0.00599906620876,-0.0690962850908,0.356922077523,0.931555873347
1652217757578042713,,3829,,1652217757,545613235,"""atracsys""",,,0.363252166748,-0.142096328735,1.09973937988,,-0.00589483565423,-0.0689979334538,0.356951618044,0.931552509775
1652217757611679486,,3830,,1652217757,587372110,"""atracsys""",,,0.363254089355,-0.142124084473,1.09974121094,,-0.00597897697221,-0.0690465306359,0.356946144943,0.931550469944
1652217757644820503,,3831,,1652217757,617247875,"""atracsys""",,,0.363255493164,-0.142101257324,1.0997286377,,-0.00597153816508,-0.0690107385777,0.356948917013,0.931552107687
1652217757678715161,,3832,,1652217757,647148898,"""atracsys""",,,0.363256164551,-0.142118347168,1.09971936035,,-0.00598790597011,-0.0690831236597,0.356932089927,0.931553085008
1652217757711275689,,3833,,1652217757,676965386,"""atracsys""",,,0.363255706787,-0.142118927002,1.09971923828,,-0.00592252434882,-0.0690081240747,0.356950663064,0.931551945227
1652217757745096784,,3834,,1652217757,718753341,"""atracsys""",,,0.363255065918,-0.142103652954,1.09971875,,-0.00594420979028,-0.0689882192092,0.356951173516,0.931553085823
1652217757778446169,,3835,,1652217757,748610819,"""atracsys""",,,0.363255554199,-0.1421222229,1.0997121582,,-0.00580873911296,-0.0689840831429,0.356949541262,0.931554872144
1652217757812240358,,3836,,1652217757,787420741,"""atracsys""",,,0.363254821777,-0.142100906372,1.09972375488,,-0.00592139615167,-0.0690989954247,0.356923874935,0.931555480581
1652217757844900206,,3837,,1652217757,817290613,"""atracsys""",,,0.363255859375,-0.142120300293,1.09972399902,,-0.00593443311211,-0.0690878069742,0.35693943718,0.931550264676
1652217757879165832,,3838,,1652217757,847090821,"""atracsys""",,,0.363254119873,-0.14210774231,1.09971081543,,-0.00585028186374,-0.0691093750534,0.356938380335,0.931549602075
1652217757911569956,,3839,,1652217757,877031325,"""atracsys""",,,0.363254119873,-0.142109542847,1.09970410156,,-0.00610925472104,-0.0690824574723,0.356928894896,0.93155357069
1652217757946482905,,3840,,1652217757,918718903,"""atracsys""",,,0.363251098633,-0.142108840942,1.09969677734,,-0.0060062840509,-0.0689799779021,0.356952405736,0.931552825791
1652217757978299387,,3841,,1652217757,948590107,"""atracsys""",,,0.363249908447,-0.142097137451,1.09968847656,,-0.00598161156594,-0.0690589184502,0.356940167575,0.931551825116
1652217758012755171,,3842,,1652217757,978458748,"""atracsys""",,,0.363251739502,-0.14211630249,1.09966638184,,-0.00600318785832,-0.0691336139175,0.356923146919,0.931552667516
1652217758045161374,,3843,,1652217758,20381487,"""atracsys""",,,0.363253540039,-0.142101165771,1.09968371582,,-0.00587244518867,-0.0692894539519,0.356898837675,0.931551236178
1652217758079796240,,3844,,1652217758,50139822,"""atracsys""",,,0.363255157471,-0.142114440918,1.09969909668,,-0.00599336233495,-0.0693116183318,0.356890831567,0.9315518845
1652217758112526234,,3845,,1652217758,79949292,"""atracsys""",,,0.363258392334,-0.142114562988,1.09971557617,,-0.00594484227416,-0.0693351515287,0.356878501505,0.931555167865
1652217758146670773,,3846,,1652217758,118820765,"""atracsys""",,,0.363258514404,-0.142118621826,1.09971228027,,-0.00598785273284,-0.069257785268,0.356896501394,0.931553751585
1652217758178514313,,3847,,1652217758,148671643,"""atracsys""",,,0.363255615234,-0.142124465942,1.09972277832,,-0.00608599023439,-0.0691769583794,0.356910095202,0.931553913145
1652217758211809291,,3848,,1652217758,181450304,"""atracsys""",,,0.363254302979,-0.142106948853,1.09972973633,,-0.0061670768888,-0.0691799847269,0.35689426987,0.931559218198
1652217758245330097,,3849,,1652217758,211297683,"""atracsys""",,,0.363253234863,-0.142126235962,1.09971459961,,-0.00598590207,-0.06909598287,0.356919710332,0.931556887422
1652217758278053124,,3850,,1652217758,250157823,"""atracsys""",,,0.363250030518,-0.142109649658,1.0997208252,,-0.00604850073662,-0.0691525156001,0.356900661505,0.931559586415
1652217758311171943,,3851,,1652217758,279929406,"""atracsys""",,,0.363250793457,-0.142118850708,1.09971765137,,-0.00600520147083,-0.0690657869098,0.356924170128,0.931557293682
1652217758345487719,,3852,,1652217758,309812766,"""atracsys""",,,0.363252624512,-0.142113739014,1.0997130127,,-0.00599338982121,-0.0691246990385,0.356921192166,0.931554141123
1652217758378183530,,3853,,1652217758,351635017,"""atracsys""",,,0.363258117676,-0.142112319946,1.09971252441,,-0.00595212626661,-0.0691572072114,0.356909142887,0.931556609448
1652217758412184959,,3854,,1652217758,381435322,"""atracsys""",,,0.363258605957,-0.142119110107,1.09971191406,,-0.00605132157287,-0.0692459971392,0.356886332622,0.931558113579
1652217758445458917,,3855,,1652217758,411321210,"""atracsys""",,,0.36325982666,-0.142100418091,1.09971813965,,-0.00604474247075,-0.0692604860629,0.356894167548,0.931554077512
1652217758478918780,,3856,,1652217758,453122770,"""atracsys""",,,0.363260101318,-0.142119094849,1.09970874023,,-0.0060823115572,-0.0691980895533,0.356910209975,0.931552323761
1652217758513253476,,3857,,1652217758,482926219,"""atracsys""",,,0.363256011963,-0.142105865479,1.09970227051,,-0.00596798715069,-0.0692381117688,0.356892775415,0.931556768997
1652217758550033224,,3858,,1652217758,521771702,"""atracsys""",,,0.363254455566,-0.142121871948,1.09969372559,,-0.00610470585514,-0.0691347418697,0.356920427204,0.931552966115
1652217758581494810,,3859,,1652217758,551675886,"""atracsys""",,,0.363254394531,-0.14210218811,1.09968969727,,-0.00608438717198,-0.0692507879964,0.356900027925,0.931552295183
1652217758613243476,,3860,,1652217758,581415507,"""atracsys""",,,0.363256744385,-0.142103027344,1.09969726562,,-0.00606800108544,-0.0694300642106,0.356862609926,0.931553392557
1652217758647383851,,3861,,1652217758,611333523,"""atracsys""",,,0.363257446289,-0.142123291016,1.09969677734,,-0.0060733064318,-0.0694531317481,0.356857129864,0.931553737744
1652217758681489652,,3862,,1652217758,653080286,"""atracsys""",,,0.363260070801,-0.14209954834,1.09970373535,,-0.00602842586923,-0.0693332244396,0.356886533743,0.931551696957
1652217758713584586,,3863,,1652217758,682943728,"""atracsys""",,,0.363260528564,-0.142114501953,1.09970227051,,-0.00612760672907,-0.0692921570869,0.356878252039,0.93155727823
1652217758747533228,,3864,,1652217758,724851433,"""atracsys""",,,0.363261047363,-0.142096359253,1.09968920898,,-0.00620562746843,-0.0692135328329,0.356903648635,0.931552877002
1652217758779645248,,3865,,1652217758,754817177,"""atracsys""",,,0.363260467529,-0.142120330811,1.09968615723,,-0.0062143655541,-0.0691775426296,0.356905082382,0.931554942785
1652217758813997353,,3866,,1652217758,784446598,"""atracsys""",,,0.363258361816,-0.14211289978,1.09968701172,,-0.00621658793815,-0.0691734990636,0.356903077473,0.931555996359
1652217758847180076,,3867,,1652217758,814268334,"""atracsys""",,,0.363259368896,-0.142099716187,1.09969311523,,-0.00609861969208,-0.0691364471953,0.356919135344,0.931553374387
1652217758879358023,,3868,,1652217758,853053715,"""atracsys""",,,0.363261413574,-0.142122802734,1.09968640137,,-0.00601876663823,-0.0690417452984,0.356941303028,0.931552423671
1652217758913055310,,3869,,1652217758,885967517,"""atracsys""",,,0.363263061523,-0.142107543945,1.09969030762,,-0.00616342882502,-0.0691185640092,0.356905431753,0.931559525226
1652217758945970690,,3870,,1652217758,915882120,"""atracsys""",,,0.363264343262,-0.142117996216,1.09969311523,,-0.00614316628664,-0.0691067504542,0.35691133683,0.931558273106
1652217758980075006,,3871,,1652217758,954767673,"""atracsys""",,,0.363264312744,-0.142103134155,1.09969116211,,-0.00607953456014,-0.0691188674488,0.356926518034,0.931551975011
1652217759013582682,,3872,,1652217758,984407462,"""atracsys""",,,0.363262237549,-0.142115905762,1.09969360352,,-0.00609198300768,-0.0691668517685,0.356923219778,0.931549595858
1652217759049719854,,3873,,1652217759,14309097,"""atracsys""",,,0.36325982666,-0.142118499756,1.09969873047,,-0.00591295586337,-0.0691668662386,0.356934533339,0.931546413486
1652217759092783776,,3874,,1652217759,65065839,"""atracsys""",,,0.363255523682,-0.142113845825,1.09970092773,,-0.00601908414748,-0.0691550764203,0.356925671216,0.931550004701
1652217759112844721,,3875,,1652217759,85927899,"""atracsys""",,,0.363256744385,-0.142121994019,1.09970568848,,-0.00606977061847,-0.0691844317924,0.356904275925,0.931555693509
1652217759147989449,,3876,,1652217759,115862152,"""atracsys""",,,0.363257110596,-0.142104827881,1.09970300293,,-0.00605172397514,-0.069138747419,0.356910508047,0.931556814954
1652217759180729884,,3877,,1652217759,157580279,"""atracsys""",,,0.363259216309,-0.14212651062,1.09970397949,,-0.00603835585723,-0.0691235385654,0.356918702024,0.931554890932
1652217759213038922,,3878,,1652217759,187417332,"""atracsys""",,,0.363258422852,-0.14210194397,1.09970373535,,-0.00602875556958,-0.0692347215842,0.356907563636,0.931550963959
1652217759247420476,,3879,,1652217759,217241683,"""atracsys""",,,0.363259979248,-0.142094741821,1.09969714355,,-0.00598245420156,-0.0691291933356,0.356930137645,0.931550450438
1652217759280474403,,3880,,1652217759,247165916,"""atracsys""",,,0.36325894165,-0.142128311157,1.0996940918,,-0.00606274563493,-0.0692028585122,0.356906111945,0.931553667131
1652217759314043725,,3881,,1652217759,285950195,"""atracsys""",,,0.363255340576,-0.142095321655,1.09970349121,,-0.00599802107264,-0.0691114607035,0.356946147026,0.931545531826
1652217759346674358,,3882,,1652217759,315867055,"""atracsys""",,,0.363254333496,-0.142104751587,1.09970532227,,-0.00585452615903,-0.0689126424783,0.356988127666,0.931545086904
1652217759380315345,,3883,,1652217759,348669735,"""atracsys""",,,0.363255737305,-0.142103820801,1.0997175293,,-0.00585641484758,-0.0689524419365,0.356981696592,0.931544594453
1652217759412991231,,3884,,1652217759,387587759,"""atracsys""",,,0.3632578125,-0.142102432251,1.09974157715,,-0.00583608345167,-0.0691017868194,0.356954716824,0.931543994305
1652217759446843413,,3885,,1652217759,417320043,"""atracsys""",,,0.363258148193,-0.142100540161,1.09975109863,,-0.00585463993822,-0.0691846061485,0.356924181104,0.931549431006
1652217759480218357,,3886,,1652217759,447159416,"""atracsys""",,,0.363259338379,-0.142090316772,1.09974597168,,-0.00597970328018,-0.0691629619793,0.356906732748,0.931556928995
1652217759513382021,,3887,,1652217759,488896823,"""atracsys""",,,0.363262176514,-0.142116485596,1.0997364502,,-0.00605406268302,-0.0690998688865,0.356909735667,0.931559980372
1652217759546555076,,3888,,1652217759,518819191,"""atracsys""",,,0.363261535645,-0.142105804443,1.09973217773,,-0.00622300675632,-0.0691891064361,0.356905175015,0.931553990805
1652217759580096647,,3889,,1652217759,548617726,"""atracsys""",,,0.363263061523,-0.142109817505,1.09972460937,,-0.00623066826881,-0.0692379898141,0.356898874666,0.931552721429
1652217759613392532,,3890,,1652217759,587517513,"""atracsys""",,,0.363264312744,-0.142113769531,1.09971472168,,-0.00611386788063,-0.0692803045211,0.356887826202,0.931554582155
1652217759646723784,,3891,,1652217759,620310884,"""atracsys""",,,0.363262634277,-0.142106887817,1.09970837402,,-0.00599238095358,-0.0692173283578,0.356889028608,0.931559592342
1652217759680093229,,3892,,1652217759,650128632,"""atracsys""",,,0.363261962891,-0.14211706543,1.0997130127,,-0.00601646833335,-0.0692603770984,0.356908774372,0.931548672399
1652217759713861517,,3893,,1652217759,688938536,"""atracsys""",,,0.363259857178,-0.142097396851,1.09971484375,,-0.00606789084257,-0.0691184700851,0.356934980802,0.931548837836
1652217759746585128,,3894,,1652217759,718920692,"""atracsys""",,,0.363258544922,-0.142116500854,1.09971240234,,-0.00611749624365,-0.0691772556765,0.356911022738,0.93155332933
1652217759780953796,,3895,,1652217759,748745642,"""atracsys""",,,0.363256866455,-0.142117050171,1.0997154541,,-0.00602868063039,-0.0691717554056,0.356913780583,0.931553260149
1652217759814355842,,3896,,1652217759,790549952,"""atracsys""",,,0.363256866455,-0.142106689453,1.09971264648,,-0.00601897161133,-0.0691001311613,0.356930075203,0.931552395343
1652217759847812575,,3897,,1652217759,820244225,"""atracsys""",,,0.363256622314,-0.142114212036,1.09970837402,,-0.00596789412119,-0.0692092459962,0.356900713076,0.931555873533
1652217759880552610,,3898,,1652217759,850203370,"""atracsys""",,,0.363257537842,-0.142103729248,1.09972521973,,-0.00591169276792,-0.0692351772806,0.356900999078,0.931554195403
1652217759914427620,,3899,,1652217759,888972134,"""atracsys""",,,0.363258911133,-0.142119995117,1.09972619629,,-0.00609319943041,-0.0691696232919,0.356909385729,0.931554682513
1652217759946920524,,3900,,1652217759,915878975,"""atracsys""",,,0.363260040283,-0.142114257813,1.09972106934,,-0.00613671406283,-0.0691882610875,0.356898065468,0.93155734989
1652217759980919811,,3901,,1652217759,951834331,"""atracsys""",,,0.363259124756,-0.142110656738,1.0997220459,,-0.00610677059608,-0.0691655312571,0.356906194104,0.93155612029
1652217760014361344,,3902,,1652217759,981486970,"""atracsys""",,,0.363258117676,-0.142119049072,1.09972497559,,-0.00606351018112,-0.0691967154906,0.356902745767,0.931555408161
1652217760047439890,,3903,,1652217760,20326315,"""atracsys""",,,0.363254058838,-0.142109634399,1.0997434082,,-0.00607051321992,-0.0691076550535,0.356917400955,0.931556358884
1652217760080671051,,3904,,1652217760,50152025,"""atracsys""",,,0.363252166748,-0.142112838745,1.09973876953,,-0.00606082677936,-0.0692758645948,0.356889076448,0.931554779965
1652217760114662138,,3905,,1652217760,82936886,"""atracsys""",,,0.363251525879,-0.142123748779,1.0997244873,,-0.00620551071991,-0.0694508964909,0.356845099768,0.931557641472
1652217760147522229,,3906,,1652217760,121724259,"""atracsys""",,,0.363252105713,-0.142108901978,1.09968103027,,-0.00622793217874,-0.0697248546649,0.356791360095,0.931557611136
1652217760180820738,,3907,,1652217760,151741889,"""atracsys""",,,0.363253143311,-0.142104370117,1.09967602539,,-0.00604388789781,-0.0695998489595,0.35682263546,0.931556192222
1652217760213986262,,3908,,1652217760,181499978,"""atracsys""",,,0.363256103516,-0.142105361938,1.09966760254,,-0.0059707782066,-0.0694327974772,0.356853123845,0.931557450963
1652217760247394658,,3909,,1652217760,223524996,"""atracsys""",,,0.36325769043,-0.142098419189,1.09966333008,,-0.00586157622532,-0.0694266809539,0.356866306838,0.931553550227
1652217760280364706,,3910,,1652217760,253225679,"""atracsys""",,,0.363258178711,-0.14210345459,1.09966052246,,-0.00597524759785,-0.0693023231627,0.356885949623,0.931554562751
1652217760314732921,,3911,,1652217760,283001993,"""atracsys""",,,0.36325668335,-0.142109863281,1.09967285156,,-0.00587101723169,-0.0690829503628,0.356922221478,0.931557622985
1652217760347481539,,3912,,1652217760,312798913,"""atracsys""",,,0.363254333496,-0.142103988647,1.09967700195,,-0.00581546900646,-0.0688675386725,0.356972989301,0.931554468266
1652217760380899292,,3913,,1652217760,351593116,"""atracsys""",,,0.363251190186,-0.142118652344,1.0996998291,,-0.00583592603224,-0.0688485250442,0.356971796052,0.931556203023
1652217760414233056,,3914,,1652217760,384428451,"""atracsys""",,,0.36324810791,-0.142107925415,1.09971704102,,-0.00593304680635,-0.0689576156133,0.3569553349,0.931553828338
1652217760448357189,,3915,,1652217760,424711567,"""atracsys""",,,0.363249267578,-0.14211882019,1.09971838379,,-0.00595155358162,-0.0690936762713,0.356935045763,0.931551402777
1652217760482321785,,3916,,1652217760,453239612,"""atracsys""",,,0.363247589111,-0.142110900879,1.09972583008,,-0.00594516663393,-0.0691001977086,0.35692383261,0.931555256217
1652217760515272953,,3917,,1652217760,482952619,"""atracsys""",,,0.363249755859,-0.142120986938,1.0997277832,,-0.00594024474658,-0.0690821473751,0.356928992634,0.931554649295
1652217760548748074,,3918,,1652217760,524808129,"""atracsys""",,,0.363251922607,-0.142115127563,1.0997355957,,-0.00598718731477,-0.0690684847744,0.356930136966,0.931554923407
1652217760580675528,,3919,,1652217760,554657790,"""atracsys""",,,0.363253265381,-0.14211114502,1.09973144531,,-0.00598925275199,-0.0689825772623,0.356960488969,0.931549645591
1652217760614413024,,3920,,1652217760,584443953,"""atracsys""",,,0.3632527771,-0.142128433228,1.09973132324,,-0.00594629551076,-0.0690303308419,0.35694797286,0.931551179305
1652217760647532965,,3921,,1652217760,614277662,"""atracsys""",,,0.363252410889,-0.142112106323,1.09974255371,,-0.00598938812625,-0.069093168919,0.356927101581,0.931554241789
1652217760680563678,,3922,,1652217760,656176370,"""atracsys""",,,0.363254455566,-0.142127944946,1.09975415039,,-0.00609583673629,-0.069150822967,0.356915759838,0.931553618874
1652217760714010911,,3923,,1652217760,685962290,"""atracsys""",,,0.363255737305,-0.142115234375,1.09974560547,,-0.00611841190587,-0.0691065574668,0.35692264171,0.931554118978
1652217760747402969,,3924,,1652217760,715800803,"""atracsys""",,,0.363255859375,-0.142120071411,1.09975085449,,-0.00616789389452,-0.0690844086297,0.356928966021,0.931553012332
1652217760780751084,,3925,,1652217760,754584378,"""atracsys""",,,0.363259857178,-0.142116012573,1.09974145508,,-0.00606223368475,-0.0691109734328,0.356925916869,0.93155290378
1652217760814260363,,3926,,1652217760,784428682,"""atracsys""",,,0.363261566162,-0.14209715271,1.09972460937,,-0.00606995000323,-0.0690780966544,0.356942212301,0.931549048278
1652217760847155320,,3927,,1652217760,817255542,"""atracsys""",,,0.363263061523,-0.142121810913,1.09972338867,,-0.00604190691744,-0.0691137117403,0.356928202895,0.931551956784
1652217760880747918,,3928,,1652217760,856604126,"""atracsys""",,,0.363260528564,-0.142091125488,1.09971838379,,-0.00600570503639,-0.0691825458487,0.356909915443,0.931554088132
1652217760914079239,,3929,,1652217760,885993938,"""atracsys""",,,0.363260681152,-0.142109558105,1.09971081543,,-0.00595694143958,-0.0692524130062,0.356904628047,0.931551235639
1652217760947661076,,3930,,1652217760,915841368,"""atracsys""",,,0.363260620117,-0.142110351563,1.09971044922,,-0.0059153496469,-0.0693092577938,0.356884400783,0.931555022476
1652217760980927008,,3931,,1652217760,945632788,"""atracsys""",,,0.363258209229,-0.142098114014,1.09971899414,,-0.00605466754206,-0.0693156028704,0.356873104029,0.931557983069
1652217761014607475,,3932,,1652217760,987439538,"""atracsys""",,,0.363261077881,-0.142115081787,1.09970324707,,-0.0061027037445,-0.0692858492511,0.356883748211,0.931555805287
1652217761047559419,,3933,,1652217761,17353351,"""atracsys""",,,0.363263519287,-0.14209147644,1.09970031738,,-0.00603696063411,-0.0691772133191,0.356921055595,0.931550013868
1652217761082521441,,3934,,1652217761,56369770,"""atracsys""",,,0.363267059326,-0.142104034424,1.09969567871,,-0.0059789430194,-0.0693065969592,0.35690027111,0.931548734281
1652217761114655007,,3935,,1652217761,86013984,"""atracsys""",,,0.363267974854,-0.142105377197,1.09970117188,,-0.00594523017165,-0.0690954778718,0.356935171945,0.931551261179
1652217761149165900,,3936,,1652217761,118883973,"""atracsys""",,,0.363263549805,-0.142097946167,1.09969396973,,-0.00595342803442,-0.0689925436502,0.356956962933,0.931550488287
1652217761181631256,,3937,,1652217761,148657294,"""atracsys""",,,0.363260070801,-0.142108612061,1.09969799805,,-0.00598555087836,-0.0690146118043,0.356958127622,0.931548201471
1652217761215977013,,3938,,1652217761,187484245,"""atracsys""",,,0.363254486084,-0.142092025757,1.09968811035,,-0.0059258493572,-0.0690567340108,0.356943575816,0.931551037507
1652217761248268951,,3939,,1652217761,217282751,"""atracsys""",,,0.363251434326,-0.142112457275,1.0996862793,,-0.0058982203144,-0.0691130265661,0.356929889926,0.931552282072
1652217761282382803,,3940,,1652217761,259057489,"""atracsys""",,,0.363251525879,-0.142093856812,1.09969396973,,-0.00597564360962,-0.0691578055041,0.356928292239,0.931549077516
1652217761314798506,,3941,,1652217761,288945842,"""atracsys""",,,0.363253662109,-0.142108230591,1.0997109375,,-0.00598096258168,-0.0691893426789,0.356914853212,0.931551850679
1652217761354444851,,3942,,1652217761,327821623,"""atracsys""",,,0.363255523682,-0.142108306885,1.09971374512,,-0.00606895082034,-0.0692844497989,0.356886894106,0.931554924665
1652217761390663172,,3943,,1652217761,357643459,"""atracsys""",,,0.363255615234,-0.142095367432,1.09971398926,,-0.00610432137499,-0.0691275451086,0.356922824387,0.931552584238
1652217761419120109,,3944,,1652217761,387509953,"""atracsys""",,,0.363259033203,-0.142121063232,1.09970373535,,-0.00613776856967,-0.0690996619283,0.356930584023,0.931551460043
1652217761450650961,,3945,,1652217761,420300527,"""atracsys""",,,0.363255706787,-0.142094741821,1.09971179199,,-0.00605596665484,-0.0689673577364,0.356953966695,0.93155284042
1652217761486244087,,3946,,1652217761,459229702,"""atracsys""",,,0.363253723145,-0.142113143921,1.09972668457,,-0.00602600961765,-0.0689653016083,0.356958739571,0.931551358018
1652217761516724599,,3947,,1652217761,489053217,"""atracsys""",,,0.363249938965,-0.142111663818,1.09973144531,,-0.00596867090283,-0.0689647742555,0.356961518016,0.931550701538
1652217761549639874,,3948,,1652217761,518821650,"""atracsys""",,,0.363250976562,-0.142093261719,1.09973120117,,-0.00599107123819,-0.0690184995308,0.356950234629,0.931550902413
1652217761583111078,,3949,,1652217761,548700470,"""atracsys""",,,0.363250976562,-0.142116836548,1.09972644043,,-0.00596376580207,-0.0689767246995,0.356958308998,0.931551077819
1652217761615170159,,3950,,1652217761,590471428,"""atracsys""",,,0.363255096436,-0.142092453003,1.09972790527,,-0.0059632034038,-0.0690788391966,0.356944490157,0.931548809847
1652217761648568212,,3951,,1652217761,620306107,"""atracsys""",,,0.363256774902,-0.142109909058,1.09972924805,,-0.00595534998092,-0.0690837249679,0.356934546182,0.931552307975
1652217761682071723,,3952,,1652217761,650177322,"""atracsys""",,,0.363260223389,-0.142108123779,1.09973291016,,-0.00591655760069,-0.0690141504369,0.356939208531,0.931555925749
1652217761715778956,,3953,,1652217761,691952932,"""atracsys""",,,0.36325958252,-0.142097747803,1.09973156738,,-0.00591636045222,-0.0690624140347,0.356929790954,0.931555958586
1652217761748946485,,3954,,1652217761,721783906,"""atracsys""",,,0.363260620117,-0.142122055054,1.09974169922,,-0.00604817205888,-0.0691786231232,0.356896111753,0.93155939324
1652217761782602432,,3955,,1652217761,751646401,"""atracsys""",,,0.363257232666,-0.142102386475,1.09973962402,,-0.00595994117224,-0.0691180502709,0.356925932264,0.9315530329
1652217761816270325,,3956,,1652217761,790519291,"""atracsys""",,,0.363255889893,-0.142105255127,1.09973571777,,-0.00592993443455,-0.0690940419637,0.356931405286,0.931552908408
1652217761849450546,,3957,,1652217761,820266934,"""atracsys""",,,0.36325579834,-0.14211289978,1.0997322998,,-0.0061256195702,-0.0692254503851,0.356908039483,0.931550838739
1652217761882382414,,3958,,1652217761,850119828,"""atracsys""",,,0.363255340576,-0.142109237671,1.09973547363,,-0.00598030527639,-0.0690378142092,0.356949684382,0.931549751209
1652217761916132105,,3959,,1652217761,891959233,"""atracsys""",,,0.363256591797,-0.142103729248,1.09973217773,,-0.00591933049835,-0.0690981600168,0.356926053637,0.931554720907
1652217761948743390,,3960,,1652217761,922015796,"""atracsys""",,,0.363259552002,-0.142100219727,1.09973388672,,-0.00600483576514,-0.0690466650208,0.356936798675,0.93155387485
1652217761982622391,,3961,,1652217761,951640748,"""atracsys""",,,0.36325958252,-0.142120910645,1.09972766113,,-0.00600678003837,-0.0690380012491,0.356945659608,0.931551109207
1652217762015976793,,3962,,1652217761,981531103,"""atracsys""",,,0.363258087158,-0.142097015381,1.09974145508,,-0.00593656695799,-0.069122929439,0.356924992472,0.931553180204
1652217762049525396,,3963,,1652217762,17323233,"""atracsys""",,,0.363259796143,-0.142114471436,1.09973962402,,-0.00593705281835,-0.0691267761853,0.356919691332,0.931554922781
1652217762082143100,,3964,,1652217762,53151103,"""atracsys""",,,0.363258270264,-0.142118331909,1.09972473145,,-0.00612629316222,-0.0691153410653,0.356900270467,0.93156198672
1652217762116201649,,3965,,1652217762,82978099,"""atracsys""",,,0.36325869751,-0.142122817993,1.09971264648,,-0.00614112236653,-0.0691298331107,0.356916635047,0.931554543984
1652217762149163327,,3966,,1652217762,121833055,"""atracsys""",,,0.363256713867,-0.142115890503,1.09970690918,,-0.00591416480074,-0.069019974073,0.356948259024,0.931552041602
1652217762182503079,,3967,,1652217762,154611987,"""atracsys""",,,0.363256225586,-0.142113937378,1.09970812988,,-0.00589584535975,-0.0689880775649,0.356955977493,0.931551562874
1652217762215854480,,3968,,1652217762,184539871,"""atracsys""",,,0.363256072998,-0.142120239258,1.09969665527,,-0.00595929243592,-0.0690743953616,0.356939309886,0.931551149319
1652217762249130400,,3969,,1652217762,223326365,"""atracsys""",,,0.363252227783,-0.142111114502,1.09969824219,,-0.00589672522259,-0.069004617362,0.356959794447,0.931548869659
1652217762282361151,,3970,,1652217762,253273754,"""atracsys""",,,0.363252349854,-0.142108520508,1.09970153809,,-0.00593561236502,-0.0691576735935,0.356924464855,0.931550809713
1652217762315299795,,3971,,1652217762,283019176,"""atracsys""",,,0.363250427246,-0.142121551514,1.09969689941,,-0.00579607821035,-0.0690061851909,0.356944170116,0.931555372108
1652217762348788694,,3972,,1652217762,315922966,"""atracsys""",,,0.363249969482,-0.14211340332,1.099703125,,-0.00591271253367,-0.0690498215354,0.356934421732,0.931555140912
1652217762382253435,,3973,,1652217762,354822749,"""atracsys""",,,0.363250518799,-0.142102615356,1.09970715332,,-0.0059061755347,-0.0690211628432,0.35695097124,0.931550964951
